country,id,latitude,longitude,name,population,geometry
UGA,1.0,0.5833,32.5333,Bombo,75000.0,POINT (32.5333 0.5833)
UGA,2.0,0.671,30.275,Fort Portal,42670.0,POINT (30.275 0.671)
ITA,3.0,40.642,15.799,Potenza,69060.0,POINT (15.799 40.642)
ITA,4.0,41.563,14.656,Campobasso,50762.0,POINT (14.656 41.563)
ITA,5.0,45.737,7.315,Aosta,34062.0,POINT (7.315 45.737)
ALD,6.0,60.097,19.949,Mariehamn,10682.0,POINT (19.949 60.097)
PSE,7.0,31.90294,35.20621,Ramallah,24599.0,POINT (35.20621 31.90294)
VAT,8.0,41.90001,12.44781,Vatican City,832.0,POINT (12.44781 41.90001)
FRA,9.0,46.58329,0.33328,Poitier,85960.0,POINT (0.33328 46.58329)
FRA,10.0,45.77998,3.08001,Clermont-Ferrand,233050.0,POINT (3.08001 45.77998)
FRA,11.0,47.23,6.03001,Besancon,128426.0,POINT (6.03001 47.23)
ATA,12.0,-62.17389,-58.86386,Artigas Base,60.0,POINT (-58.86386 -62.17389)
ZMB,13.0,-13.62957,32.64001,Chipata,85963.0,POINT (32.64001 -13.62957)
UGA,14.0,0.44042,33.19993,Jinja,301619.0,POINT (33.19993 0.44042)
UGA,15.0,3.02037,30.90002,Arua,250000.0,POINT (30.90002 3.02037)
UGA,16.0,1.09041,34.17,Mbale,402368.0,POINT (34.17 1.09041)
UGA,17.0,2.54035,34.63999,Moroto,371.0,POINT (34.63999 2.54035)
UGA,18.0,-0.32961,31.72999,Masaka,65373.0,POINT (31.72999 -0.32961)
UGA,19.0,-0.59962,30.65,Mbarara,83700.0,POINT (30.65 -0.59962)
NAM,20.0,-20.45954,16.64001,Otjiwarongo,24815.0,POINT (16.64001 -20.45954)
ITA,21.0,44.50042,11.34002,Bologna,488172.0,POINT (11.34002 44.50042)
ITA,22.0,39.2224,9.10398,Cagliari,291511.0,POINT (9.10398 39.2224)
ITA,23.0,38.90038,16.60001,Catanzaro,95251.0,POINT (16.60001 38.90038)
ITA,24.0,41.11422,16.87276,Bari,500577.0,POINT (16.87276 41.11422)
ITA,25.0,42.3504,13.39002,L'Aquila,68503.0,POINT (13.39002 42.3504)
ITA,26.0,43.60037,13.49994,Ancona,100507.0,POINT (13.49994 43.60037)
ITA,27.0,43.11038,12.38998,Perugia,149125.0,POINT (12.38998 43.11038)
ITA,28.0,45.65038,13.80003,Trieste,216035.0,POINT (13.80003 45.65038)
ITA,29.0,46.08043,11.11998,Trento,107808.0,POINT (11.11998 46.08043)
FRA,30.0,14.61041,-61.08003,Fort-de-France,253995.0,POINT (-61.08003 14.61041)
JPN,31.0,35.42309,136.76275,Gifu,412895.0,POINT (136.76275 35.42309)
FRA,32.0,5.49762,-54.03253,Saint-Laurent-du-Maroni,24287.0,POINT (-54.03253 5.49762)
FRA,33.0,49.18375,-0.34999,Caen,190099.0,POINT (-0.34999 49.18375)
FRA,34.0,47.21039,-1.59002,Nantes,438537.0,POINT (-1.59002 47.21039)
FRA,35.0,41.92706,8.72829,Ajaccio,54364.0,POINT (8.72829 41.92706)
FRA,36.0,43.6104,3.86999,Montpellier,327254.0,POINT (3.86999 43.6104)
FRA,37.0,47.3304,5.03002,Dijon,169946.0,POINT (5.03002 47.3304)
FRA,38.0,47.90042,1.90003,Orleans,217301.0,POINT (1.90003 47.90042)
FRA,39.0,49.43041,1.07998,Rouen,532559.0,POINT (1.07998 49.43041)
FRA,40.0,49.25039,4.02998,Reims,196565.0,POINT (4.02998 49.25039)
FRA,41.0,49.90038,2.3,Amiens,143086.0,POINT (2.3 49.90038)
FRA,42.0,48.68368,6.20002,Nancy,268976.0,POINT (6.20002 48.68368)
FRA,43.0,16.23039,-61.43998,Basse-terre,307.0,POINT (-61.43998 16.23039)
SRB,44.0,45.25038,19.84994,Novi Sad,225457.0,POINT (19.84994 45.25038)
BIH,45.0,44.7804,17.17997,Banja Luka,221738.0,POINT (17.17997 44.7804)
GBR,46.0,19.28044,-81.32998,George Town,4268.0,POINT (-81.32998 19.28044)
GBR,47.0,21.46643,-71.13598,Grand Turk,5801.0,POINT (-71.13598 21.46643)
GBR,48.0,54.15043,-4.48002,Douglas,35854.0,POINT (-4.48002 54.15043)
SMR,49.0,43.91715,12.46667,San Marino,29579.0,POINT (12.46667 43.91715)
NLD,50.0,12.20043,-69.01998,Willemstad,146813.0,POINT (-69.01998 12.20043)
NLD,51.0,12.53038,-70.02899,Oranjestad,68775.0,POINT (-70.02899 12.53038)
LIE,52.0,47.13372,9.51667,Vaduz,36281.0,POINT (9.51667 47.13372)
ATA,53.0,-62.49951,-59.68332,Capitan Arturo Prat Station,41.0,POINT (-59.68332 -62.49951)
ATA,54.0,-64.23289,-56.65002,Marambio Station,150.0,POINT (-56.65002 -64.23289)
ATA,55.0,-74.61919,164.21903,Zucchelli Station,80.0,POINT (164.21903 -74.61919)
ATA,56.0,-67.56478,-68.12354,Rothera Station,130.0,POINT (-68.12354 -67.56478)
ATA,57.0,-64.76241,-64.04688,Palmer Station,46.0,POINT (-64.04688 -64.76241)
ATA,58.0,-62.18274,-58.90765,Base Presidente Montalva,150.0,POINT (-58.90765 -62.18274)
ATA,59.0,-62.22414,-58.65048,Carlini Station,60.0,POINT (-58.65048 -62.22414)
ATA,60.0,-62.22485,-58.7716,King Sejong Station,90.0,POINT (-58.7716 -62.22485)
ATA,61.0,-62.21632,-58.9667,Great Wall Station,40.0,POINT (-58.9667 -62.21632)
ATA,62.0,-62.19496,-58.95267,Escudero Base,20.0,POINT (-58.95267 -62.19496)
ATA,63.0,-61.99959,-57.99998,Elephant Island,6.0,POINT (-57.99998 -61.99959)
ATA,64.0,-77.84694,166.7491,Scott Base,85.0,POINT (166.7491 -77.84694)
ATA,65.0,-77.73228,166.86942,McMurdo Station,1000.0,POINT (166.86942 -77.73228)
ATA,66.0,-69.43406,76.3393,Zhongshan Station,60.0,POINT (76.3393 -69.43406)
ATA,67.0,-78.46628,106.80003,Vostok,25.0,POINT (106.80003 -78.46628)
ATA,68.0,-68.83287,90.5,Peter I Island,1.0,POINT (90.5 -68.83287)
ATA,69.0,-66.57553,93.00629,Mirny Station,169.0,POINT (93.00629 -66.57553)
ATA,70.0,-67.61452,62.875,Mawson Station,60.0,POINT (62.875 -67.61452)
ATA,71.0,-68.77767,78.14074,Davis Station,70.0,POINT (78.14074 -68.77767)
ATA,72.0,-74.66631,124.16704,Concordia Research Station,30.0,POINT (124.16704 -74.66631)
ATA,73.0,-66.28609,110.53621,Casey Station,200.0,POINT (110.53621 -66.28609)
ATA,74.0,-89.98289,139.26699,AmundsenScott South Pole Station,200.0,POINT (139.26699 -89.98289)
ATA,75.0,-73.04961,-13.41671,Wasa Station,10.0,POINT (-13.41671 -73.04961)
ATA,76.0,-72.01629,2.53332,Troll Station,44.0,POINT (2.53332 -72.01629)
ATA,77.0,-74.5829,-11.21669,Svea Station,10.0,POINT (-11.21669 -74.5829)
ATA,78.0,-71.30123,-11.85021,Novolazarevskaya Station,70.0,POINT (-11.85021 -71.30123)
ATA,79.0,-70.8904,-7.83844,Neumayer Station III,40.0,POINT (-7.83844 -70.8904)
ATA,80.0,-70.78218,11.73046,Maitri Station,65.0,POINT (11.73046 -70.78218)
ATA,81.0,-76.09226,-26.47416,Halley Station,70.0,POINT (-26.47416 -76.09226)
ATA,82.0,-77.86632,-34.61668,Belgrano Station,100.0,POINT (-34.61668 -77.86632)
ATA,83.0,-81.17908,-40.50153,Camp Sobral,40.0,POINT (-40.50153 -81.17908)
ATA,84.0,-75.04959,-13.41671,Aboa Station,18.0,POINT (-13.41671 -75.04959)
ATA,85.0,-68.11632,-67.1,San Martín Station,20.0,POINT (-67.1 -68.11632)
ATA,86.0,-63.32842,-57.88959,Gen. O'Higgins Station,44.0,POINT (-57.88959 -63.32842)
ATA,87.0,-63.37533,-57.0259,Esperanza Station,250.0,POINT (-57.0259 -63.37533)
ATA,88.0,-60.7329,-44.7333,Orcadas Station,45.0,POINT (-44.7333 -60.7329)
ATA,89.0,-60.63131,-45.6007,Signy Research Station,8.0,POINT (-45.6007 -60.63131)
ATA,90.0,-66.77505,139.96368,Dumont d'Urville Station,120.0,POINT (139.96368 -66.77505)
ATA,91.0,-69.03039,39.74608,Showa Station,60.0,POINT (39.74608 -69.03039)
GBR,92.0,36.13243,-5.37807,Gibraltar,187083.0,POINT (-5.37807 36.13243)
SWZ,93.0,-26.46667,31.2,Lobamba,9782.0,POINT (31.2 -26.46667)
GBR,94.0,55.94833,-3.21909,Edinburgh,504966.0,POINT (-3.21909 55.94833)
GBR,95.0,51.49999,-3.22501,Cardiff,861400.0,POINT (-3.22501 51.49999)
NOR,96.0,78.21668,15.55,Longyearbyen,1232.0,POINT (15.55 78.21668)
LUX,97.0,49.61166,6.13,Luxembourg,107260.0,POINT (6.13 49.61166)
ITA,98.0,45.07039,7.66996,Turin,1652000.0,POINT (7.66996 45.07039)
FRA,99.0,-22.26253,166.44429,Noumea,93060.0,POINT (166.44429 -22.26253)
JPN,100.0,33.84554,132.76584,Matsuyama,533541.0,POINT (132.76584 33.84554)
FRA,101.0,48.10002,-1.67001,Rennes,209375.0,POINT (-1.67001 48.10002)
FRA,102.0,43.61996,1.44993,Toulouse,847000.0,POINT (1.44993 43.61996)
FRA,103.0,45.82998,1.24999,Limoges,152199.0,POINT (1.24999 45.82998)
FRA,104.0,50.64997,3.08001,Lille,1044000.0,POINT (3.08001 50.64997)
FRA,105.0,48.57997,7.75001,Strasbourg,439972.0,POINT (7.75001 48.57997)
GEO,106.0,41.6,41.63001,Batumi,155542.0,POINT (41.63001 41.6)
PRT,107.0,32.64998,-16.88004,Funchal,204767.0,POINT (-16.88004 32.64998)
SDN,108.0,13.62998,25.35002,El Fasher,252609.0,POINT (25.35002 13.62998)
NAM,109.0,-26.5739,18.12999,Keetmanshoop,18039.0,POINT (18.12999 -26.5739)
NAM,110.0,-22.66886,14.53502,Swakopmund,29491.0,POINT (14.53502 -22.66886)
ITA,111.0,44.40999,8.93004,Genoa,647497.0,POINT (8.93004 44.40999)
GEO,112.0,43.02002,41.02002,Sukhumi,81546.0,POINT (41.02002 43.02002)
FSM,113.0,6.91664,158.14997,Palikir,4645.0,POINT (158.14997 6.91664)
MHL,114.0,7.103,171.38,Majuro,25400.0,POINT (171.38 7.103)
USA,115.0,13.47002,144.75002,Agana,122411.0,POINT (144.75002 13.47002)
TUV,116.0,-8.51665,179.21665,Funafuti,4749.0,POINT (179.21665 -8.51665)
PLW,117.0,7.4874,134.62655,Melekeok,7026.0,POINT (134.62655 7.4874)
SAH,118.0,26.11917,-9.65252,Bir Lehlou,500.0,POINT (-9.65252 26.11917)
MCO,119.0,43.73965,7.40691,Monaco,36371.0,POINT (7.40691 43.73965)
KIR,120.0,1.33819,173.01757,Tarawa,28802.0,POINT (173.01757 1.33819)
COM,121.0,-11.70416,43.24024,Moroni,128698.0,POINT (43.24024 -11.70416)
CHN,122.0,22.203,113.54505,Macau,568700.0,POINT (113.54505 22.203)
AND,123.0,42.5,1.51649,Andorra,53998.0,POINT (1.51649 42.5)
USA,124.0,34.12038,-117.30003,San Bernardino,1745000.0,POINT (-117.30003 34.12038)
USA,125.0,41.17998,-73.19996,Bridgeport,1018000.0,POINT (-73.19996 41.17998)
USA,126.0,43.17043,-77.61995,Rochester,755000.0,POINT (-77.61995 43.17043)
GBR,127.0,53.50042,-2.24799,Manchester,2230000.0,POINT (-2.24799 53.50042)
PAK,128.0,32.16043,74.18502,Gujranwala,1513000.0,POINT (74.18502 32.16043)
KOR,129.0,37.47615,126.64223,Incheon,2550000.0,POINT (126.64223 37.47615)
NGA,130.0,6.34048,5.62001,Benin City,1190000.0,POINT (5.62001 6.34048)
CHN,131.0,24.44999,118.08002,Xiamen,2519000.0,POINT (118.08002 24.44999)
CHN,132.0,30.78043,106.13,Nanchong,2174000.0,POINT (106.13 30.78043)
CHN,133.0,29.58038,105.05001,Neijiang,1466000.0,POINT (105.05001 29.58038)
CHN,134.0,33.0004,112.53002,Nanyang,1944000.0,POINT (112.53002 33.0004)
CHN,135.0,40.75034,120.82998,Jinxi,2426000.0,POINT (120.82998 40.75034)
CHN,136.0,37.53041,121.40002,Yantai,2116000.0,POINT (121.40002 37.53041)
CHN,137.0,34.88,117.57002,Zaozhuang,2145000.0,POINT (117.57002 34.88)
CHN,138.0,31.30048,120.62002,Suzhou,1650000.0,POINT (120.62002 31.30048)
CHN,139.0,34.28001,117.18002,Xuzhou,2091000.0,POINT (117.18002 34.28001)
CHN,140.0,31.58,120.29998,Wuxi,1749000.0,POINT (120.29998 31.58)
CHN,141.0,43.84997,126.55004,Jilin,2396000.0,POINT (126.55004 43.84997)
IND,142.0,30.72,76.78001,Chandigarh,979000.0,POINT (76.78001 30.72)
IND,143.0,32.71179,74.84674,Jammu,791000.0,POINT (74.84674 32.71179)
IND,144.0,17.67041,75.90001,Sholapur,1057000.0,POINT (75.90001 17.67041)
IND,145.0,19.8957,75.3203,Aurangabad,1113000.0,POINT (75.3203 19.8957)
IND,146.0,20.00042,73.77998,Nasik,1473000.0,POINT (73.77998 20.00042)
IND,147.0,26.14402,91.76664,Dispur,16140.0,POINT (91.76664 26.14402)
IND,148.0,31.33492,75.56902,Jullundur,855000.0,POINT (75.56902 31.33492)
IND,149.0,25.455,81.84001,Allahabad,1201000.0,POINT (81.84001 25.455)
IND,150.0,28.84179,78.75678,Moradabad,787000.0,POINT (78.75678 28.84179)
IND,151.0,28.66038,77.40839,Ghaziabad,1341000.0,POINT (77.40839 28.66038)
IND,152.0,27.17042,78.01502,Agra,1592000.0,POINT (78.01502 27.17042)
IND,153.0,27.89221,78.06179,Aligarh,805000.0,POINT (78.06179 27.89221)
IND,154.0,29.00041,77.7,Meerut,1398000.0,POINT (77.7 29.00041)
IND,155.0,23.80039,86.41999,Dhanbad,1246000.0,POINT (86.41999 23.80039)
IND,156.0,26.22999,78.18008,Gwalior,978000.0,POINT (78.18008 26.22999)
IND,157.0,22.31002,73.18002,Vadodara,1756000.0,POINT (73.18002 22.31002)
IND,158.0,22.31002,70.80001,Rajkot,1260000.0,POINT (70.80001 22.31002)
URY,159.0,-33.41002,-56.51005,Durazno,34037.0,POINT (-56.51005 -33.41002)
USA,160.0,48.60113,-93.41085,International Falls,15240.0,POINT (-93.41085 48.60113)
USA,161.0,44.94399,-93.08497,St. Paul,734854.0,POINT (-93.08497 44.94399)
USA,162.0,45.7883,-108.54,Billings,104552.0,POINT (-108.54 45.7883)
USA,163.0,47.50029,-111.29999,Great Falls,66558.0,POINT (-111.29999 47.50029)
USA,164.0,46.87224,-113.99305,Missoula,72856.0,POINT (-113.99305 46.87224)
USA,165.0,48.23249,-101.29582,Minot,39439.0,POINT (-101.29582 48.23249)
USA,166.0,46.87723,-96.78943,Fargo,162842.0,POINT (-96.78943 46.87723)
USA,167.0,19.7,-155.09003,Hilo,52391.0,POINT (-155.09003 19.7)
USA,168.0,47.03804,-122.89943,Olympia,156984.0,POINT (-122.89943 47.03804)
USA,169.0,47.67,-117.41995,Spokane,347705.0,POINT (-117.41995 47.67)
USA,170.0,45.6303,-122.63999,Vancouver,525802.0,POINT (-122.63999 45.6303)
USA,171.0,35.1981,-111.65051,Flagstaff,63993.0,POINT (-111.65051 35.1981)
USA,172.0,32.205,-110.88999,Tucson,823000.0,POINT (-110.88999 32.205)
USA,173.0,34.43499,-119.71999,Santa Barbara,181632.0,POINT (-119.71999 34.43499)
USA,174.0,36.74772,-119.77298,Fresno,616353.0,POINT (-119.77298 36.74772)
USA,175.0,40.80222,-124.1475,Eureka,42398.0,POINT (-124.1475 40.80222)
USA,176.0,38.86296,-104.79199,Colorado Springs,493654.0,POINT (-104.79199 38.86296)
USA,177.0,39.52998,-119.82001,Reno,328585.0,POINT (-119.82001 39.52998)
USA,178.0,40.83251,-115.76199,Elko,19252.0,POINT (-115.76199 40.83251)
USA,179.0,35.10497,-106.64133,Albuquerque,898642.0,POINT (-106.64133 35.10497)
USA,180.0,44.92807,-123.0239,Salem,229010.0,POINT (-123.0239 44.92807)
USA,181.0,42.86662,-106.31249,Casper,60791.0,POINT (-106.31249 42.86662)
USA,182.0,39.05001,-95.66998,Topeka,132091.0,POINT (-95.66998 39.05001)
USA,183.0,39.10709,-94.60409,Kansas City,1469000.0,POINT (-94.60409 39.10709)
USA,184.0,36.12,-95.93002,Tulsa,946962.0,POINT (-95.93002 36.12)
USA,185.0,43.54999,-96.73,Sioux Falls,155724.0,POINT (-96.73 43.54999)
USA,186.0,32.50002,-93.77002,Shreveport,248053.0,POINT (-93.77002 32.50002)
USA,187.0,30.45795,-91.14016,Baton Rouge,422072.0,POINT (-91.14016 30.45795)
USA,188.0,32.73998,-97.34004,Ft. Worth,1440454.0,POINT (-97.34004 32.73998)
USA,189.0,27.74281,-97.40189,Corpus Christi,277454.0,POINT (-97.40189 27.74281)
USA,190.0,30.26695,-97.74278,Austin,1161000.0,POINT (-97.74278 30.26695)
USA,191.0,35.22998,-101.83,Amarillo,181766.0,POINT (-101.83 35.22998)
USA,192.0,31.77998,-106.51,El Paso,753000.0,POINT (-106.51 31.77998)
USA,193.0,27.50614,-99.50722,Laredo,434768.0,POINT (-99.50722 27.50614)
VEN,194.0,8.39999,-71.13001,Merida,345489.0,POINT (-71.13001 8.39999)
USA,195.0,44.4758,-73.21247,Burlington,93807.0,POINT (-73.21247 44.4758)
USA,196.0,32.3616,-86.27919,Montgomery,198325.0,POINT (-86.27919 32.3616)
USA,197.0,30.44999,-84.28003,Tallahassee,221222.0,POINT (-84.28003 30.44999)
USA,198.0,28.50998,-81.38003,Orlando,1350000.0,POINT (-81.38003 28.50998)
USA,199.0,30.33002,-81.66999,Jacksonville,988000.0,POINT (-81.66999 30.33002)
USA,200.0,32.02111,-81.11,Savannah,180187.0,POINT (-81.11 32.02111)
USA,201.0,34.03998,-80.89998,Columbia,398093.0,POINT (-80.89998 34.03998)
USA,202.0,39.74999,-86.17005,Indianapolis,1436000.0,POINT (-86.17005 39.74999)
USA,203.0,34.22552,-77.94502,Wilmington,161560.0,POINT (-77.94502 34.22552)
USA,204.0,35.97001,-83.92003,Knoxville,655400.0,POINT (-83.92003 35.97001)
USA,205.0,37.55002,-77.44999,Richmond,912000.0,POINT (-77.44999 37.55002)
USA,206.0,38.34974,-81.63273,Charleston,123799.0,POINT (-81.63273 38.34974)
USA,207.0,39.29999,-76.61998,Baltimore,2255000.0,POINT (-76.61998 39.29999)
USA,208.0,43.04999,-76.15001,Syracuse,662577.0,POINT (-76.15001 43.04999)
VEN,209.0,5.6639,-67.62361,Puerto Ayacucho,52526.0,POINT (-67.62361 5.6639)
TTO,210.0,10.652,-61.51703,Port-of-Spain,294934.0,POINT (-61.51703 10.652)
USA,211.0,44.31056,-69.77999,Augusta,24042.0,POINT (-69.77999 44.31056)
USA,212.0,46.49526,-84.34528,Sault Ste. Marie,83805.0,POINT (-84.34528 46.49526)
TGO,213.0,7.53004,1.12002,Atakpame,80683.0,POINT (1.12002 7.53004)
TUN,214.0,35.83,10.62503,Sousse,327004.0,POINT (10.62503 35.83)
YEM,215.0,13.60445,44.03942,Taizz,751000.0,POINT (44.03942 13.60445)
USA,216.0,57.0604,-135.32755,Sitka,8931.0,POINT (-135.32755 57.0604)
UKR,217.0,49.83498,24.03,Lvov,803880.0,POINT (24.03 49.83498)
UKR,218.0,46.49002,30.71,Odessa,991000.0,POINT (30.71 46.49002)
UKR,219.0,50.24558,28.66217,Zhytomyr,282192.0,POINT (28.66217 50.24558)
UKR,220.0,48.47997,35.00002,Dnipropetrovsk,1050000.0,POINT (35.00002 48.47997)
UKR,221.0,48.0,37.82998,Donetsk,988000.0,POINT (37.82998 48)
UKR,222.0,49.99998,36.25002,Kharkiv,1461000.0,POINT (36.25002 49.99998)
TKM,223.0,40.02305,52.96968,Turkmenbasy,68292.0,POINT (52.96968 40.02305)
UZB,224.0,39.78001,64.43001,Bukhara,319476.0,POINT (64.43001 39.78001)
UZB,225.0,42.47,59.61501,Nukus,230006.0,POINT (59.61501 42.47)
TKM,226.0,39.11,63.58004,Turkmenabat,234817.0,POINT (63.58004 39.11)
TKM,227.0,37.60002,61.83332,Mary,178708.0,POINT (61.83332 37.60002)
UZB,228.0,40.79,72.33997,Andijon,650000.0,POINT (72.33997 40.79)
VNM,229.0,20.83001,106.68009,Haiphong,1969000.0,POINT (106.68009 20.83001)
VNM,230.0,16.06004,108.24997,Da Nang,1000000.0,POINT (108.24997 16.06004)
ZMB,231.0,-14.44001,28.44998,Kabwe,188979.0,POINT (28.44998 -14.44001)
ZMB,232.0,-12.55,28.25997,Mufulira,153624.0,POINT (28.25997 -12.55)
ZMB,233.0,-12.81003,28.22002,Kitwe,404901.0,POINT (28.22002 -12.81003)
ZMB,234.0,-17.86001,25.86001,Livingstone,165480.0,POINT (25.86001 -17.86001)
ZWE,235.0,-18.0,31.1,Chitungwiza,340360.0,POINT (31.1 -18)
CMR,236.0,4.06041,9.70999,Douala,1906000.0,POINT (9.70999 4.06041)
GBR,237.0,52.47497,-1.92,Birmingham,2285000.0,POINT (-1.92 52.47497)
GBR,238.0,54.60001,-5.96003,Belfast,450406.0,POINT (-5.96003 54.60001)
TUR,239.0,38.43615,27.15179,Izmir,2587000.0,POINT (27.15179 38.43615)
TUR,240.0,40.19999,29.07,Bursa,1492000.0,POINT (29.07 40.19999)
TUR,241.0,41.28,36.34366,Samsun,609339.0,POINT (36.34366 41.28)
TUR,242.0,37.87501,32.47501,Konya,919000.0,POINT (32.47501 37.87501)
TUR,243.0,36.99499,35.32,Adana,1293000.0,POINT (35.32 36.99499)
UGA,244.0,2.78,32.28003,Gulu,146858.0,POINT (32.28003 2.78)
RWA,245.0,-1.95359,30.06053,Kigali,860000.0,POINT (30.06053 -1.95359)
SUR,246.0,3.85001,-54.23329,Cottica,29210.0,POINT (-54.23329 3.85001)
ESP,247.0,37.88,-4.77,Cordoba,321376.0,POINT (-4.77 37.88)
NER,248.0,13.49164,7.0964,Maradi,232555.0,POINT (7.0964 13.49164)
NER,249.0,14.89998,5.25993,Tahoua,115956.0,POINT (5.25993 14.89998)
ROU,250.0,44.20266,28.60997,Constanta,303399.0,POINT (28.60997 44.20266)
SWE,251.0,65.59663,22.15838,Luleå,48638.0,POINT (22.15838 65.59663)
SWE,252.0,62.40005,17.31666,Sundsvall,73389.0,POINT (17.31666 62.40005)
ROU,253.0,47.16835,27.57495,Iasi,325914.0,POINT (27.57495 47.16835)
THA,254.0,9.1501,99.34013,Surat Thani,157627.0,POINT (99.34013 9.1501)
THA,255.0,18.79998,98.98005,Chiang Mai,397211.0,POINT (98.98005 18.79998)
THA,256.0,15.00003,102.10001,Nakhon Ratchasima,334984.0,POINT (102.10001 15.00003)
SWZ,257.0,-26.31665,31.13333,Mbabane,90138.0,POINT (31.13333 -26.31665)
PER,258.0,-5.21003,-80.62997,Piura,396932.0,POINT (-80.62997 -5.21003)
PER,259.0,-16.41999,-71.53001,Arequipa,815000.0,POINT (-71.53001 -16.41999)
PER,260.0,-9.07,-78.57,Chimbote,349846.0,POINT (-78.57 -9.07)
PER,261.0,-8.36891,-74.535,Pucallpa,310750.0,POINT (-74.535 -8.36891)
PER,262.0,-3.75002,-73.25001,Iquitos,458729.0,POINT (-73.25001 -3.75002)
PER,263.0,-12.08,-75.20002,Huancayo,412733.0,POINT (-75.20002 -12.08)
PRY,264.0,-25.5167,-54.61606,Ciudad del Este,320872.0,POINT (-54.61606 -25.5167)
PRT,265.0,37.7483,-25.66658,Ponta Delgada,61526.0,POINT (-25.66658 37.7483)
ESP,266.0,42.22002,-8.72999,Vigo,378952.0,POINT (-8.72999 42.22002)
ESP,267.0,43.24998,-2.92999,Bilbao,875552.0,POINT (-2.92999 43.24998)
SEN,268.0,14.14997,-16.10001,Kaolack,277812.0,POINT (-16.10001 14.14997)
SEN,269.0,16.15001,-13.49999,Kaedi,21656.0,POINT (-13.49999 16.15001)
SDN,270.0,13.45002,22.44002,Geneina,162981.0,POINT (22.44002 13.45002)
SAU,271.0,24.49999,39.58,Medina,1010000.0,POINT (39.58 24.49999)
SAU,272.0,28.38383,36.55497,Tabuk,547957.0,POINT (36.55497 28.38383)
SSD,273.0,4.82998,31.58003,Juba,111975.0,POINT (31.58003 4.82998)
SSD,274.0,9.5369,31.65599,Malakal,160765.0,POINT (31.65599 9.5369)
SDN,275.0,15.61668,32.48002,Omdurman,2395159.0,POINT (32.48002 15.61668)
SDN,276.0,13.18329,30.2167,El Obeid,393311.0,POINT (30.2167 13.18329)
NLD,277.0,52.08004,4.26996,The Hague,1406000.0,POINT (4.26996 52.08004)
NOR,278.0,58.16664,8.00002,Kristiansand,63814.0,POINT (8.00002 58.16664)
SVN,279.0,46.05529,14.51497,Ljubljana,314807.0,POINT (14.51497 46.05529)
SVK,280.0,48.15002,17.11698,Bratislava,423737.0,POINT (17.11698 48.15002)
NOR,281.0,70.66128,23.688,Hammerfest,10000.0,POINT (23.688 70.66128)
QAT,282.0,25.28656,51.53297,Doha,1450000.0,POINT (51.53297 25.28656)
PAK,283.0,30.22,67.02499,Quetta,768000.0,POINT (67.02499 30.22)
PAK,284.0,27.56177,68.20678,Larkana,364033.0,POINT (68.20678 27.56177)
ZAF,285.0,-29.66673,17.88329,Springbok,10438.0,POINT (17.88329 -29.66673)
ZAF,286.0,-28.46003,21.23001,Upington,71373.0,POINT (21.23001 -28.46003)
ZAF,287.0,-33.64003,19.43994,Worcester,127597.0,POINT (19.43994 -33.64003)
ZAF,288.0,-33.95003,22.45004,George,174582.0,POINT (22.45004 -33.95003)
MOZ,289.0,-16.17003,33.58001,Tete,129316.0,POINT (33.58001 -16.17003)
MOZ,290.0,-12.98305,40.53235,Pemba,110643.0,POINT (40.53235 -12.98305)
MOZ,291.0,-15.13604,39.29304,Nampula,388526.0,POINT (39.29304 -15.13604)
ZAF,292.0,-27.96999,26.72999,Welkom,431944.0,POINT (26.72999 -27.96999)
MOZ,293.0,-25.03998,33.64,Xai-Xai,128805.0,POINT (33.64 -25.03998)
PNG,294.0,-6.08331,145.38548,Goroka,39699.0,POINT (145.38548 -6.08331)
PNG,295.0,-5.86322,144.21682,Mt. Hagen,59064.0,POINT (144.21682 -5.86322)
PNG,296.0,-4.20549,152.14343,Rabaul,8074.0,POINT (152.14343 -4.20549)
PNG,297.0,-6.73299,146.99004,Lae,131052.0,POINT (146.99004 -6.73299)
PAN,298.0,8.43332,-82.43333,David,110037.0,POINT (-82.43333 8.43332)
MAR,299.0,34.69001,-1.90997,Oujda,409391.0,POINT (-1.90997 34.69001)
MAR,300.0,32.31998,-9.23999,Safi,353476.0,POINT (-9.23999 32.31998)
MNE,301.0,42.46597,19.26631,Podgorica,145850.0,POINT (19.26631 42.46597)
MOZ,302.0,-17.88001,36.88999,Quelimane,188964.0,POINT (36.88999 -17.88001)
ZAF,303.0,-32.97004,27.87002,East London,338627.0,POINT (27.87002 -32.97004)
ZAF,304.0,-31.5,25.00999,Middelburg,18164.0,POINT (25.00999 -31.5)
RUS,305.0,43.49811,43.61795,Naltchik,307866.0,POINT (43.61795 43.49811)
RUS,306.0,45.05,41.98001,Stavropol,363064.0,POINT (41.98001 45.05)
RUS,307.0,64.7333,177.7,Ugolnye Kopi,3367.0,POINT (177.7 64.7333)
RUS,308.0,54.70001,20.49734,Kaliningrad,434954.0,POINT (20.49734 54.70001)
RUS,309.0,57.83,28.32994,Pskov,201990.0,POINT (28.32994 57.83)
RUS,310.0,53.25999,34.42998,Bryansk,427236.0,POINT (34.42998 53.25999)
RUS,311.0,54.78269,32.04734,Smolensk,320991.0,POINT (32.04734 54.78269)
RUS,312.0,61.84998,34.28002,Petrozavodsk,265025.0,POINT (34.28002 61.84998)
RUS,313.0,56.85998,35.89,Tver,400212.0,POINT (35.89 56.85998)
RUS,314.0,59.20999,39.91998,Vologda,294889.0,POINT (39.91998 59.20999)
RUS,315.0,57.61998,39.87001,Yaroslavl,606730.0,POINT (39.87001 57.61998)
RUS,316.0,47.23465,39.71266,Rostov,1052000.0,POINT (39.71266 47.23465)
RUS,317.0,43.59001,39.72997,Sochi,327608.0,POINT (39.72997 43.59001)
RUS,318.0,45.01998,39.00004,Krasnodar,649851.0,POINT (39.00004 45.01998)
RUS,319.0,53.18002,44.99998,Penza,512602.0,POINT (44.99998 53.18002)
RUS,320.0,54.61996,39.71999,Ryazan,520173.0,POINT (39.71999 54.61996)
RUS,321.0,51.72998,39.27,Voronezh,844000.0,POINT (39.27 51.72998)
RUS,322.0,53.42269,58.98001,Magnitogorsk,413351.0,POINT (58.98001 53.42269)
RUS,323.0,55.15499,61.43867,Chelyabinsk,1091000.0,POINT (61.43867 55.15499)
RUS,324.0,67.5,64.00998,Vorkuta,80039.0,POINT (64.00998 67.5)
RUS,325.0,58.59005,49.66998,Kirov,457437.0,POINT (49.66998 58.59005)
RUS,326.0,57.92002,59.97498,Nizhny Tagil,381116.0,POINT (59.97498 57.92002)
RUS,327.0,46.34866,48.05499,Astrakhan,502533.0,POINT (48.05499 46.34866)
RUS,328.0,51.77998,55.11001,Orenburg,550204.0,POINT (55.11001 51.77998)
RUS,329.0,51.57999,46.03,Saratov,843000.0,POINT (46.03 51.57999)
RUS,330.0,54.32998,48.41001,Ulyanovsk,640680.0,POINT (48.41001 54.32998)
RUS,331.0,54.98999,73.39995,Omsk,1135000.0,POINT (73.39995 54.98999)
RUS,332.0,57.14001,65.52999,Tyumen,519119.0,POINT (65.52999 57.14001)
RUS,333.0,53.75001,87.11498,Novokuznetsk,539616.0,POINT (87.11498 53.75001)
RUS,334.0,55.33997,86.08998,Kemerovo,477090.0,POINT (86.08998 55.33997)
RUS,335.0,43.31869,45.6987,Groznyy,226100.0,POINT (45.6987 43.31869)
LKA,336.0,7.27998,80.67,Kandy,111701.0,POINT (80.67 7.27998)
LKA,337.0,6.9,79.94999,Sri Jawewardenepura Kotte,115826.0,POINT (79.94999 6.9)
KOR,338.0,36.33555,127.42503,Daejeon,1468000.0,POINT (127.42503 36.33555)
KOR,339.0,35.17097,126.91043,Gwangju,1440000.0,POINT (126.91043 35.17097)
KOR,340.0,35.09505,129.01005,Busan,3480000.0,POINT (129.01005 35.09505)
PHL,341.0,6.91998,122.08003,Zamboanga,773000.0,POINT (122.08003 6.91998)
PHL,342.0,18.19885,120.59361,Laoag,207048.0,POINT (120.59361 18.19885)
PHL,343.0,16.42999,120.56994,Baguio City,447824.0,POINT (120.56994 16.42999)
PHL,344.0,6.11083,125.17473,General Santos,950530.0,POINT (125.17473 6.11083)
RUS,345.0,57.98996,102.63331,Ust-Ulimsk,100271.0,POINT (102.63331 57.98996)
RUS,346.0,52.56001,103.92,Angarsk,243158.0,POINT (103.92 52.56001)
RUS,347.0,53.70368,91.445,Abakan,167289.0,POINT (91.445 53.70368)
RUS,348.0,69.34002,88.22499,Norilsk,165873.0,POINT (88.22499 69.34002)
RUS,349.0,72.04114,102.465,Khatanga,3205.0,POINT (102.465 72.04114)
RUS,350.0,51.7067,94.38307,Kyzyl,108240.0,POINT (94.38307 51.7067)
RUS,351.0,51.82499,107.625,Ulan Ude,360278.0,POINT (107.625 51.82499)
RUS,352.0,50.26661,127.53334,Blagoveshchensk,221296.0,POINT (127.53334 50.26661)
RUS,353.0,52.98334,116.91663,Bukachacha,3372.0,POINT (116.91663 52.98334)
RUS,354.0,44.53722,135.51725,Dalnegorsk,8123.0,POINT (135.51725 44.53722)
RUS,355.0,69.65101,162.33359,Ambarchik,0.0,POINT (162.33359 69.65101)
RUS,356.0,67.65599,134.63503,Batagay,4266.0,POINT (134.63503 67.65599)
RUS,357.0,70.61831,147.89458,Chokurdakh,2506.0,POINT (147.89458 70.61831)
RUS,358.0,64.56659,143.19998,Ust Nera,9148.0,POINT (143.19998 64.56659)
RUS,359.0,60.72527,114.94703,Lensk,25589.0,POINT (114.94703 60.72527)
RUS,360.0,58.603,125.38939,Aldan,24426.0,POINT (125.38939 58.603)
RUS,361.0,62.54002,113.96135,Mirnyy,40308.0,POINT (113.96135 62.54002)
RUS,362.0,66.76971,123.37112,Zhigansk,3237.0,POINT (123.37112 66.76971)
RUS,363.0,59.383,143.21704,Okhotsk,5570.0,POINT (143.21704 59.383)
RUS,364.0,48.45499,135.12001,Khabarovsk,579000.0,POINT (135.12001 48.45499)
RUS,365.0,53.5739,142.94785,Okha,26560.0,POINT (142.94785 53.5739)
RUS,366.0,46.96497,142.74001,Yuzhno Sakhalinsk,176484.0,POINT (142.74001 46.96497)
MEX,367.0,32.64998,-115.48002,Mexicali,885000.0,POINT (-115.48002 32.64998)
MEX,368.0,24.13996,-110.32,La Paz,189767.0,POINT (-110.32 24.13996)
MEX,369.0,25.57005,-103.42,Torreon,1144000.0,POINT (-103.42 25.57005)
MEX,370.0,24.82999,-107.37997,Culiacan,809000.0,POINT (-107.37997 24.82999)
MEX,371.0,31.305,-110.945,Nogales,178097.0,POINT (-110.945 31.305)
MEX,372.0,29.09888,-110.95406,Hermosillo,595811.0,POINT (-110.95406 29.09888)
MEX,373.0,27.93001,-110.88999,Guaymas,103449.0,POINT (-110.88999 27.93001)
MEX,374.0,22.16998,-101.0,San Luis Potosi,992000.0,POINT (-101 22.16998)
MEX,375.0,25.87998,-97.5,Matamoros,538785.0,POINT (-97.5 25.87998)
MEX,376.0,27.49999,-99.55001,Nuevo Laredo,349550.0,POINT (-99.55001 27.49999)
MEX,377.0,19.22997,-103.72001,Colima,223287.0,POINT (-103.72001 19.22997)
MEX,378.0,19.82999,-90.49999,Campeche,205212.0,POINT (-90.49999 19.82999)
MEX,379.0,17.08269,-96.66995,Oaxaca,530728.0,POINT (-96.66995 17.08269)
MEX,380.0,21.14999,-101.70003,Leon,1488000.0,POINT (-101.70003 21.14999)
NGA,381.0,11.84996,13.16001,Maiduguri,896000.0,POINT (13.16001 11.84996)
NGA,382.0,4.81,7.01,Port Harcourt,1020000.0,POINT (7.01 4.81)
NGA,383.0,7.72998,8.53001,Makurdi,292645.0,POINT (8.53001 7.72998)
NGA,384.0,7.38003,3.92998,Ibadan,2628000.0,POINT (3.92998 7.38003)
NGA,385.0,8.13001,4.23999,Ogbomosho,951000.0,POINT (4.23999 8.13001)
NGA,386.0,5.51996,5.76,Warri,830106.0,POINT (5.76 5.51996)
NGA,387.0,10.52002,7.44,Kaduna,1442000.0,POINT (7.44 10.52002)
POL,388.0,54.35998,18.64004,Gdansk,740000.0,POINT (18.64004 54.35998)
POL,389.0,50.05998,19.96001,Kraków,756000.0,POINT (19.96001 50.05998)
MNG,390.0,43.58355,104.44028,Dalandzadgad,15093.0,POINT (104.44028 43.58355)
PRK,391.0,39.16049,127.43082,Wonsan,329207.0,POINT (127.43082 39.16049)
PRK,392.0,40.08586,124.42128,Sinuiju,288112.0,POINT (124.42128 40.08586)
MNG,393.0,48.01664,91.63326,Dund-Us,30500.0,POINT (91.63326 48.01664)
MNG,394.0,48.06659,114.50602,Choybalsan,33376.0,POINT (114.50602 48.06659)
NAM,395.0,-26.648,15.15943,Lüderitz,15137.0,POINT (15.15943 -26.648)
NAM,396.0,-22.95753,14.50531,Walvis Bay,52058.0,POINT (14.50531 -22.95753)
TZA,397.0,-2.52002,32.93002,Mwanza,493944.0,POINT (32.93002 -2.52002)
TZA,398.0,-6.82001,37.66002,Morogoro,250902.0,POINT (37.66002 -6.82001)
TZA,399.0,-6.18331,35.75,Dodoma,218269.0,POINT (35.75 -6.18331)
TZA,400.0,-3.36002,36.67,Arusha,341136.0,POINT (36.67 -3.36002)
NZL,401.0,-39.49001,176.91503,Napier,56787.0,POINT (176.91503 -39.49001)
NZL,402.0,-36.99998,174.88497,Manukau,362000.0,POINT (174.88497 -36.99998)
NZL,403.0,-37.77001,175.30004,Hamilton,112145.0,POINT (175.30004 -37.77001)
NZL,404.0,-41.52099,173.95924,Blenheim,26550.0,POINT (173.95924 -41.52099)
NZL,405.0,-45.87995,170.47997,Dunedin,114347.0,POINT (170.47997 -45.87995)
CHE,406.0,46.91668,7.46698,Bern,275329.0,POINT (7.46698 46.91668)
SWE,407.0,55.58334,13.0333,Malmö,269349.0,POINT (13.0333 55.58334)
MAR,408.0,27.14998,-13.20001,Laayoune,188084.0,POINT (-13.20001 27.14998)
IDN,409.0,0.79296,127.36302,Ternate,187521.0,POINT (127.36302 0.79296)
IDN,410.0,-3.71669,128.20002,Ambon,355596.0,POINT (128.20002 -3.71669)
IDN,411.0,-8.44999,118.76664,Raba,106101.0,POINT (118.76664 -8.44999)
IDN,412.0,-2.53299,140.69998,Jayapura,169341.0,POINT (140.69998 -2.53299)
ITA,413.0,43.78,11.25,Florence,1500000.0,POINT (11.25 43.78)
ITA,414.0,37.49997,15.08,Catania,674542.0,POINT (15.08 37.49997)
KOS,415.0,42.66671,21.16598,Pristina,465186.0,POINT (21.16598 42.66671)
KEN,416.0,0.05998,37.64002,Meru,47226.0,POINT (37.64002 0.05998)
KEN,417.0,0.52001,35.26998,Eldoret,353381.0,POINT (35.26998 0.52001)
IDN,418.0,5.54998,95.32001,Banda Aceh,513698.0,POINT (95.32001 5.54998)
MYS,419.0,5.41361,100.32937,George Town,2500000.0,POINT (100.32937 5.41361)
CHN,420.0,38.92999,100.45003,Zhangye,230728.0,POINT (100.45003 38.92999)
CHN,421.0,37.92801,102.64101,Wuwei,493092.0,POINT (102.64101 37.92801)
CHN,422.0,40.14268,94.66201,Dunhuang,140094.0,POINT (94.66201 40.14268)
CHN,423.0,34.60002,105.91998,Tianshui,1225000.0,POINT (105.91998 34.60002)
CHN,424.0,36.16659,98.2666,Dulan,100.0,POINT (98.2666 36.16659)
CHN,425.0,36.41663,94.88335,Golmud,107092.0,POINT (94.88335 36.41663)
CHN,426.0,22.62997,110.15001,Yulin,1127000.0,POINT (110.15001 22.62997)
CHN,427.0,23.89972,106.61333,Bose,175282.0,POINT (106.61333 23.89972)
CHN,428.0,23.48003,111.32002,Wuzhou,442315.0,POINT (111.32002 23.48003)
CHN,429.0,26.59443,104.83333,Lupanshui,1221000.0,POINT (104.83333 26.59443)
CHN,430.0,24.90002,118.57999,Quanzhou,1463000.0,POINT (118.57999 24.90002)
CHN,431.0,31.85003,117.28001,Hefei,2035000.0,POINT (117.28001 31.85003)
CHN,432.0,33.63611,116.97889,Suzhou,1964000.0,POINT (116.97889 33.63611)
CHN,433.0,21.19998,110.38002,Zhanjiang,1590000.0,POINT (110.38002 21.19998)
CHN,434.0,24.79997,113.57998,Shaoguan,720266.0,POINT (113.57998 24.79997)
IDN,435.0,-1.25002,116.83002,Balikpapan,445905.0,POINT (116.83002 -1.25002)
MYS,436.0,1.52997,110.33,Kuching,570407.0,POINT (110.33 1.52997)
MDG,437.0,-12.2765,49.31153,Antsiranana,82937.0,POINT (49.31153 -12.2765)
MDG,438.0,-21.43333,47.08327,Fianarantsoa,184184.0,POINT (47.08327 -21.43333)
MDG,439.0,-15.67001,46.34502,Mahajanga,154657.0,POINT (46.34502 -15.67001)
MDG,440.0,-23.35683,43.68998,Toliara,115319.0,POINT (43.68998 -23.35683)
IDN,441.0,-7.56498,110.82501,Surakarta,555308.0,POINT (110.82501 -7.56498)
IDN,442.0,-5.43002,105.27,Bandar Lampung,865000.0,POINT (105.27 -5.43002)
IDN,443.0,-2.75003,107.65001,Tanjungpandan,62374.0,POINT (107.65001 -2.75003)
IDN,444.0,-7.97999,112.61002,Malang,805000.0,POINT (112.61002 -7.97999)
IDN,445.0,-10.17867,123.58299,Kupang,282396.0,POINT (123.58299 -10.17867)
IDN,446.0,-4.01667,119.63331,Parepare,87776.0,POINT (119.63331 -4.01667)
ECU,447.0,-2.89999,-78.99999,Cuenca,286878.0,POINT (-78.99999 -2.89999)
ECU,448.0,-0.53332,-90.35,Santa Cruz,11262.0,POINT (-90.35 -0.53332)
CRI,449.0,10.00002,-83.03334,Puerto Limon,85001.0,POINT (-83.03334 10.00002)
CUB,450.0,20.02502,-75.82133,Santiago de Cuba,555865.0,POINT (-75.82133 20.02502)
DOM,451.0,19.50001,-70.67001,Santiago,1550753.0,POINT (-70.67001 19.50001)
COL,452.0,5.05999,-75.52,Manizales,375848.0,POINT (-75.52 5.05999)
COL,453.0,1.21361,-77.28111,Pasto,382236.0,POINT (-77.28111 1.21361)
COL,454.0,10.95999,-74.79997,Barranquilla,1798000.0,POINT (-74.79997 10.95999)
DMA,455.0,15.30102,-61.38701,Roseau,23336.0,POINT (-61.38701 15.30102)
COD,456.0,0.04004,18.26001,Mbandaka,274996.0,POINT (18.26001 0.04004)
TCD,457.0,8.54998,16.09002,Moundou,156705.0,POINT (16.09002 8.54998)
EGY,458.0,30.00498,32.54994,Suez,508335.0,POINT (32.54994 30.00498)
EGY,459.0,31.25999,32.29001,Bur Said,623864.0,POINT (32.29001 31.25999)
EGY,460.0,29.31003,30.83997,El Faiyum,316772.0,POINT (30.83997 29.31003)
EGY,461.0,24.08751,32.89891,Aswan,313442.0,POINT (32.89891 24.08751)
EGY,462.0,27.18998,31.17995,Asyut,420585.0,POINT (31.17995 27.18998)
COD,463.0,0.52001,25.22,Kisangani,578470.0,POINT (25.22 0.52001)
ERI,464.0,13.01002,42.72999,Assab,105496.0,POINT (42.72999 13.01002)
DJI,465.0,11.59501,43.148,Djibouti,923000.0,POINT (43.148 11.59501)
DEU,466.0,51.04997,13.75,Dresden,617515.0,POINT (13.75 51.04997)
CHN,467.0,29.25001,88.88335,Xigaze,80000.0,POINT (88.88335 29.25001)
CHN,468.0,38.42614,77.25,Shache,373492.0,POINT (77.25 38.42614)
CHN,469.0,43.90002,81.35001,Yining,403489.0,POINT (81.35001 43.90002)
CHN,470.0,47.8666,88.11663,Altay,142000.0,POINT (88.11663 47.8666)
MYS,471.0,2.91402,101.70195,Putrajaya,67964.0,POINT (101.70195 2.91402)
CHN,472.0,39.23328,106.76903,Shizuishan,136570.0,POINT (106.76903 39.23328)
CHN,473.0,38.28331,109.73329,Yulin,155960.0,POINT (109.73329 38.28331)
CHN,474.0,32.67998,109.02,Ankang,1100000.0,POINT (109.02 32.67998)
CHN,475.0,35.61998,111.21,Houma,102400.0,POINT (111.21 35.61998)
CHN,476.0,29.38005,113.10001,Yueyang,826000.0,POINT (113.10001 29.38005)
CHN,477.0,26.88002,112.59002,Hengyang,1016000.0,POINT (112.59002 26.88002)
CHN,478.0,31.46998,104.76998,Mianyang,1396000.0,POINT (104.76998 31.46998)
CHN,479.0,27.88002,102.3,Xichang,379993.0,POINT (102.3 27.88002)
CHN,480.0,25.11998,99.15001,Baoshan,1000000.0,POINT (99.15001 25.11998)
CHN,481.0,23.37998,103.15008,Gejiu,149105.0,POINT (103.15008 23.37998)
CHN,482.0,38.05001,114.47998,Shijianzhuang,2417000.0,POINT (114.47998 38.05001)
CHN,483.0,36.57998,114.47998,Handan,1631000.0,POINT (114.47998 36.57998)
CHN,484.0,41.11502,122.94003,Anshan,1639000.0,POINT (122.94003 41.11502)
CHN,485.0,38.92284,121.62983,Dalian,3167000.0,POINT (121.62983 38.92284)
CHN,486.0,36.08998,120.33001,Qingdao,2866000.0,POINT (120.33001 36.08998)
CHN,487.0,35.07999,118.32998,Linyi,2082000.0,POINT (118.32998 35.07999)
CHN,488.0,33.58,119.02998,Huaiyin,1264000.0,POINT (119.02998 33.58)
CHN,489.0,28.01998,120.65009,Wenzhou,2350000.0,POINT (120.65009 28.01998)
CHN,490.0,29.87997,121.55004,Ningbo,1923000.0,POINT (121.55004 29.87997)
JPN,491.0,33.59502,130.41001,Fukuoka,2792000.0,POINT (130.41001 33.59502)
JPN,492.0,31.91824,131.41838,Miyazaki,324384.0,POINT (131.41838 31.91824)
JPN,493.0,26.20717,127.67297,Naha,905238.0,POINT (127.67297 26.20717)
JPN,494.0,33.56243,133.53752,Kochi,335570.0,POINT (133.53752 33.56243)
IDN,495.0,0.54998,123.07005,Gorontalo,365497.0,POINT (123.07005 0.54998)
CHN,496.0,43.61996,122.26999,Tongliao,884000.0,POINT (122.26999 43.61996)
CHN,497.0,40.81997,111.66,Hohhot,1726000.0,POINT (111.66 40.81997)
CHN,498.0,42.27002,118.94999,Chifeng,1277000.0,POINT (118.94999 42.27002)
CHN,499.0,46.08002,122.08003,Ulanhot,241894.0,POINT (122.08003 46.08002)
CHN,500.0,49.19998,119.70002,Hailar,231171.0,POINT (119.70002 49.19998)
CHN,501.0,46.83002,130.35002,Jiamusi,1020000.0,POINT (130.35002 46.83002)
CHN,502.0,48.23901,126.48204,Beian,154936.0,POINT (126.48204 48.23901)
CHN,503.0,46.57996,125.00001,Daqing,1693000.0,POINT (125.00001 46.57996)
CHN,504.0,45.29996,130.97003,Jixi,965000.0,POINT (130.97003 45.29996)
JPN,505.0,35.155,136.91499,Nagoya,3230000.0,POINT (136.91499 35.155)
JPN,506.0,36.65,138.17001,Nagano,594311.0,POINT (138.17001 36.65)
JPN,507.0,42.97496,144.37469,Kushiro,198566.0,POINT (144.37469 42.97496)
JPN,508.0,41.79498,140.73998,Hakodate,302984.0,POINT (140.73998 41.79498)
JPN,509.0,35.02999,135.75,Kyoto,1805000.0,POINT (135.75 35.02999)
JPN,510.0,38.28711,141.02172,Sendai,2250000.0,POINT (141.02172 38.28711)
JPN,511.0,38.92004,139.85006,Sakata,100446.0,POINT (139.85006 38.92004)
COD,512.0,-3.30999,17.37996,Bandundu,118211.0,POINT (17.37996 -3.30999)
COD,513.0,-5.89004,22.40002,Kananga,765000.0,POINT (22.40002 -5.89004)
COD,514.0,-4.45003,26.66002,Kasongo,63000.0,POINT (26.66002 -4.45003)
COD,515.0,-6.15003,23.6,Mbuji-Mayi,1295000.0,POINT (23.6 -6.15003)
COD,516.0,-5.9333,29.20002,Kalemie,206257.0,POINT (29.20002 -5.9333)
COD,517.0,0.13,29.28001,Butembo,286403.0,POINT (29.28001 0.13)
COD,518.0,-1.6788,29.22179,Goma,144124.0,POINT (29.22179 -1.6788)
MWI,519.0,-11.45999,34.01998,Mzuzu,110201.0,POINT (34.01998 -11.45999)
MWI,520.0,-15.79001,34.98995,Blantyre,584877.0,POINT (34.98995 -15.79001)
GTM,521.0,14.82996,-91.52001,Quetzaltenango,575263.0,POINT (-91.52001 14.82996)
GMB,522.0,13.45388,-16.5917,Banjul,43094.0,POINT (-16.5917 13.45388)
IND,523.0,28.43333,77.31667,Faridabad,1394000.0,POINT (77.31667 28.43333)
IND,524.0,34.09997,74.81501,Srinagar,1140000.0,POINT (74.81501 34.09997)
IND,525.0,16.51996,80.63,Vijayawada,1137000.0,POINT (80.63 16.51996)
IND,526.0,8.49998,76.95002,Thiruvananthapuram,954000.0,POINT (76.95002 8.49998)
IND,527.0,10.01501,76.22392,Kochi,1519000.0,POINT (76.22392 10.01501)
IND,528.0,20.47,85.88994,Cuttack,580000.0,POINT (85.88994 20.47)
IND,529.0,15.35998,75.12502,Hubli,890000.0,POINT (75.12502 15.35998)
IND,530.0,12.90003,74.84999,Mangalore,776632.0,POINT (74.84999 12.90003)
IND,531.0,12.30998,76.66001,Mysore,887000.0,POINT (76.66001 12.30998)
IND,532.0,17.34996,76.82,Gulbarga,483615.0,POINT (76.82 17.34996)
IND,533.0,16.7,74.22001,Kolhapur,750000.0,POINT (74.22001 16.7)
IND,534.0,19.16998,77.30003,Nanded,623708.0,POINT (77.30003 19.16998)
IND,535.0,20.70999,77.01002,Akola,503502.0,POINT (77.01002 20.70999)
IND,536.0,26.16002,91.77,Guwahati,983000.0,POINT (91.77 26.16002)
COG,537.0,-4.18002,13.28001,Kayes,62521.0,POINT (13.28001 -4.18002)
GAB,538.0,-1.6333,13.58329,Franceville,42967.0,POINT (13.58329 -1.6333)
FRA,539.0,44.85001,-0.59501,Bordeaux,803000.0,POINT (-0.59501 44.85001)
FRA,540.0,43.28998,5.37501,Marseille,1400000.0,POINT (5.37501 43.28998)
FRA,541.0,49.50497,0.10497,Le Havre,242124.0,POINT (0.10497 49.50497)
MLI,542.0,16.26659,-0.05001,Gao,116967.0,POINT (-0.05001 16.26659)
CHL,543.0,-45.57,-72.07,Coihaique,45787.0,POINT (-72.07 -45.57)
CHL,544.0,-18.50002,-70.28998,Arica,185999.0,POINT (-70.28998 -18.50002)
CHL,545.0,-27.36,-70.33998,Copiapo,129280.0,POINT (-70.33998 -27.36)
CHL,546.0,-29.9,-71.24998,La Serena,154521.0,POINT (-71.24998 -29.9)
CHL,547.0,-37.46,-72.35999,Los Angeles,145239.0,POINT (-72.35999 -37.46)
DNK,548.0,61.16659,-45.41662,Narsarsuaq,145.0,POINT (-45.41662 61.16659)
DNK,549.0,66.95001,-53.66661,Sisimiut,5227.0,POINT (-53.66661 66.95001)
DNK,550.0,72.70937,-56.14168,Upernavik,1129.0,POINT (-56.14168 72.70937)
DNK,551.0,77.48347,-69.33224,Qaanaaq,616.0,POINT (-69.33224 77.48347)
MRT,552.0,20.9,-17.05602,Nouadhibou,86738.0,POINT (-17.05602 20.9)
MLI,553.0,14.44998,-11.44001,Kayes,77207.0,POINT (-11.44001 14.44998)
MRT,554.0,16.66659,-9.61666,Ayoun el Atrous,1423.0,POINT (-9.61666 16.66659)
MLI,555.0,13.43999,-6.26002,Segou,122952.0,POINT (-6.26002 13.43999)
MKD,556.0,42.00001,21.43346,Skopje,494087.0,POINT (21.43346 42.00001)
LBY,557.0,24.19998,23.28999,Al Jawf,24132.0,POINT (23.28999 24.19998)
LBY,558.0,26.36665,15.80001,Tmassah,500.0,POINT (15.80001 26.36665)
LBY,559.0,32.37997,15.1,Misratah,386120.0,POINT (15.1 32.37997)
LBY,560.0,32.93441,12.07915,Zuwarah,180310.0,POINT (12.07915 32.93441)
IRQ,561.0,35.47224,44.39227,Kirkuk,601433.0,POINT (44.39227 35.47224)
IRQ,562.0,36.345,43.145,Mosul,1316000.0,POINT (43.145 36.345)
IRQ,563.0,32.00033,44.33537,An Najaf,665552.0,POINT (44.33537 32.00033)
ETH,564.0,11.60005,37.38329,Bahir Dar,206748.0,POINT (37.38329 11.60005)
ETH,565.0,13.49999,39.46998,Mekele,95856.0,POINT (39.46998 13.49999)
ETH,566.0,9.58999,41.86002,Dire Dawa,252279.0,POINT (41.86002 9.58999)
FIN,567.0,66.50004,25.71594,Rovaniemi,34781.0,POINT (25.71594 66.50004)
FIN,568.0,63.09998,21.60001,Vaasa,57014.0,POINT (21.60001 63.09998)
FIN,569.0,61.5,23.75001,Tampere,259279.0,POINT (23.75001 61.5)
KAZ,570.0,50.28002,57.16999,Aqtobe,262457.0,POINT (57.16999 50.28002)
KAZ,571.0,52.9527,63.13004,Rudny,124000.0,POINT (63.13004 52.9527)
KAZ,572.0,44.80002,65.46499,Qyzylorda,300000.0,POINT (65.46499 44.80002)
KAZ,573.0,47.11269,51.92002,Atyrau,182753.0,POINT (51.92002 47.11269)
KAZ,574.0,51.72998,75.31994,Ekibastuz,127868.0,POINT (75.31994 51.72998)
KAZ,575.0,52.3,76.95002,Pavlodar,329002.0,POINT (76.95002 52.3)
KAZ,576.0,50.435,80.27504,Semey,311353.0,POINT (80.27504 50.435)
KAZ,577.0,49.99004,82.61495,Oskemen,319067.0,POINT (82.61495 49.99004)
IRN,578.0,31.92005,54.37,Yazd,477905.0,POINT (54.37 31.92005)
IRN,579.0,31.27999,48.72001,Ahvaz,996000.0,POINT (48.72001 31.27999)
IRQ,580.0,30.51352,47.81356,Basra,870000.0,POINT (47.81356 30.51352)
IRN,581.0,27.20406,56.27214,Bandar-e-Abbas,461499.0,POINT (56.27214 27.20406)
IRN,582.0,34.79603,48.51501,Hamadan,528256.0,POINT (48.51501 34.79603)
IRN,583.0,38.08629,46.30125,Tabriz,1413000.0,POINT (46.30125 38.08629)
IND,584.0,30.92776,75.87226,Ludhiana,1649000.0,POINT (75.87226 30.92776)
IND,585.0,25.18,75.835,Kota,827000.0,POINT (75.835 25.18)
IND,586.0,26.29177,73.01677,Jodhpur,995000.0,POINT (73.01677 26.29177)
KAZ,587.0,42.32001,69.59502,Shymkent,465392.0,POINT (69.59502 42.32001)
KAZ,588.0,42.89998,71.36499,Taraz,358153.0,POINT (71.36499 42.89998)
IND,589.0,26.85504,80.915,Lucknow,2695000.0,POINT (80.915 26.85504)
IND,590.0,29.97002,77.55004,Saharanpur,484873.0,POINT (77.55004 29.97002)
IND,591.0,23.37001,85.33003,Ranchi,1044000.0,POINT (85.33003 23.37001)
IND,592.0,25.23,86.98,Bhagalpur,361548.0,POINT (86.98 25.23)
IND,593.0,21.23499,81.63501,Raipur,875000.0,POINT (81.63501 21.23499)
IND,594.0,23.17506,79.95506,Jabalpur,1285000.0,POINT (79.95506 23.17506)
IND,595.0,22.71506,75.86502,Indore,2026000.0,POINT (75.86502 22.71506)
IND,596.0,11.93499,79.83,Pondicherry,227411.0,POINT (79.83 11.93499)
IND,597.0,11.67,78.18008,Salem,873000.0,POINT (78.18008 11.67)
IND,598.0,10.81,78.68997,Tiruchirappalli,951000.0,POINT (78.68997 10.81)
COG,599.0,-4.77001,11.88004,Pointe-Noire,659084.0,POINT (11.88004 -4.77001)
GIN,600.0,10.39,-9.31001,Kankan,114009.0,POINT (-9.31001 10.39)
GIN,601.0,7.76,-8.82999,Nzerekore,168121.0,POINT (-8.82999 7.76)
CIV,602.0,7.68998,-5.03001,Bouake,567481.0,POINT (-5.03001 7.68998)
FRA,603.0,-20.87889,55.44808,St.-Denis,190047.0,POINT (55.44808 -20.87889)
BRA,604.0,-9.96659,-67.80001,Rio Branco,257642.0,POINT (-67.80001 -9.96659)
BRA,605.0,-2.51598,-44.26599,São Luís,1038000.0,POINT (-44.26599 -2.51598)
BRA,606.0,-8.75002,-63.90001,Porto Velho,306180.0,POINT (-63.90001 -8.75002)
BRA,607.0,-12.47,-49.082,Alvorada,10232.0,POINT (-49.082 -12.47)
BRA,608.0,-19.01601,-57.65001,Corumba,96520.0,POINT (-57.65001 -19.01601)
BRA,609.0,-19.91503,-43.915,Belo Horizonte,5575000.0,POINT (-43.915 -19.91503)
BRA,610.0,-16.72003,-43.86002,Montes Claros,332379.0,POINT (-43.86002 -16.72003)
BRA,611.0,-18.9,-48.27998,Uberlandia,563536.0,POINT (-48.27998 -18.9)
BRA,612.0,-10.81729,-55.45058,Colider,27139.0,POINT (-55.45058 -10.81729)
BRA,613.0,-9.90003,-55.90998,Alta Floresta,40466.0,POINT (-55.90998 -9.90003)
BRA,614.0,-15.56961,-56.08499,Cuiaba,806000.0,POINT (-56.08499 -15.56961)
BRA,615.0,-31.75001,-52.33002,Pelotas,320674.0,POINT (-52.33002 -31.75001)
BRA,616.0,-29.17999,-51.17004,Caxias do Sul,381270.0,POINT (-51.17004 -29.17999)
BRA,617.0,-25.09001,-50.16005,Ponta Grossa,292177.0,POINT (-50.16005 -25.09001)
BRA,618.0,-5.095,-42.78001,Teresina,907000.0,POINT (-42.78001 -5.095)
BRA,619.0,-9.62,-35.72997,Maceio,1186000.0,POINT (-35.72997 -9.62)
BRA,620.0,-14.85001,-40.84,Vitoria da Conquista,308204.0,POINT (-40.84 -14.85001)
BRA,621.0,-12.14,-45.0,Barreiras,158292.0,POINT (-45 -12.14)
BRA,622.0,-20.36761,-40.31799,Vila Velha,1209091.0,POINT (-40.31799 -20.36761)
BRA,623.0,-5.78002,-35.24,Natal,1088000.0,POINT (-35.24 -5.78002)
CAN,624.0,55.74994,-97.86662,Thompson,13727.0,POINT (-97.86662 55.74994)
CAN,625.0,49.83327,-99.94998,Brandon,28418.0,POINT (-99.94998 49.83327)
CAN,626.0,60.00002,-111.88334,Fort Smith,518.0,POINT (-111.88334 60.00002)
CAN,627.0,56.73332,-111.38332,Fort McMurray,21863.0,POINT (-111.38332 56.73332)
CAN,628.0,56.23332,-117.28329,Peace River,5340.0,POINT (-117.28329 56.23332)
CAN,629.0,56.24999,-120.83328,Fort St. John,18776.0,POINT (-120.83328 56.24999)
CAN,630.0,63.75046,-68.50019,Iqaluit,6124.0,POINT (-68.50019 63.75046)
CAN,631.0,69.11696,-105.03332,Cambridge Bay,1477.0,POINT (-105.03332 69.11696)
CAN,632.0,67.79866,-115.12535,Kugluktuk,1302.0,POINT (-115.12535 67.79866)
CAN,633.0,63.33829,-90.70008,Chesterfield Inlet,374.0,POINT (-90.70008 63.33829)
CAN,634.0,61.10859,-94.05861,Arviat,1868.0,POINT (-94.05861 61.10859)
CAN,635.0,69.53331,-93.53332,Taloyoak,774.0,POINT (-93.53332 69.53331)
CAN,636.0,69.25654,-81.79359,Igloolik,1612.0,POINT (-81.79359 69.25654)
CAN,637.0,64.06664,-139.41667,Dawson City,1319.0,POINT (-139.41667 64.06664)
CAN,638.0,48.46659,-81.33331,Timmins,34974.0,POINT (-81.33331 48.46659)
CAN,639.0,46.3,-79.44999,North Bay,50170.0,POINT (-79.44999 46.3)
CAN,640.0,55.2815,-77.76583,Kuujjuarapik,1243.0,POINT (-77.76583 55.2815)
CAN,641.0,58.10001,-68.4,Kuujjuaq,1273.0,POINT (-68.4 58.10001)
CAN,642.0,46.06611,-60.17998,Sydney,37538.0,POINT (-60.17998 46.06611)
CAN,643.0,52.94143,-66.91587,Labrador City,10313.0,POINT (-66.91587 52.94143)
CMR,644.0,2.90002,11.15001,Ebolowa,87875.0,POINT (11.15001 2.90002)
CAF,645.0,5.76196,20.6672,Bambari,62098.0,POINT (20.6672 5.76196)
ITA,646.0,45.43866,12.335,Venice,270816.0,POINT (12.335 45.43866)
ARG,647.0,-50.33332,-72.30002,El Calafate,8000.0,POINT (-72.30002 -50.33332)
ARG,648.0,-31.55003,-68.51999,San Juan,447048.0,POINT (-68.51999 -31.55003)
ARG,649.0,-43.30001,-65.09999,Rawson,26335.0,POINT (-65.09999 -43.30001)
ARG,650.0,-38.95004,-68.05999,Neuquen,242092.0,POINT (-68.05999 -38.95004)
BOL,651.0,-14.83337,-64.89998,Trinidad,84259.0,POINT (-64.89998 -14.83337)
ARG,652.0,-36.62,-64.29999,Santa Rosa,111424.0,POINT (-64.29999 -36.62)
ARG,653.0,-41.14996,-71.3,San Carlos de Bariloche,95394.0,POINT (-71.3 -41.14996)
ARG,654.0,-24.78336,-65.41664,Salta,512686.0,POINT (-65.41664 -24.78336)
ARG,655.0,-26.816,-65.21662,Tucumán,830000.0,POINT (-65.21662 -26.816)
ARG,656.0,-26.17284,-58.18282,Formosa,221383.0,POINT (-58.18282 -26.17284)
ARG,657.0,-31.62387,-60.69,Santa Fe,489505.0,POINT (-60.69 -31.62387)
ARG,658.0,-32.95113,-60.66631,Rosario,1203000.0,POINT (-60.66631 -32.95113)
BRA,659.0,-22.90001,-47.10003,Campinas,2791000.0,POINT (-47.10003 -22.90001)
BRA,660.0,-23.49,-47.46998,Sorocaba,563281.0,POINT (-47.46998 -23.49)
BRA,661.0,-21.17004,-47.82999,Ribeirao Preto,551267.0,POINT (-47.82999 -21.17004)
BRA,662.0,-9.38001,-40.50997,Petrolina,260985.0,POINT (-40.50997 -9.38001)
CMR,663.0,5.95998,10.15002,Bamenda,445299.0,POINT (10.15002 5.95998)
CMR,664.0,9.30001,13.39002,Garoua,436899.0,POINT (13.39002 9.30001)
AFG,665.0,34.33001,62.16999,Herat,481009.0,POINT (62.16999 34.33001)
AFG,666.0,36.69999,67.10003,Mazar-e Sharif,458151.0,POINT (67.10003 36.69999)
KHM,667.0,13.10001,103.20005,Battambang,154773.0,POINT (103.20005 13.10001)
KHM,668.0,13.36664,103.85003,Siem Reap,109398.0,POINT (103.85003 13.36664)
AGO,669.0,-9.54,16.34003,Malanje,125856.0,POINT (16.34003 -9.54)
AGO,670.0,-12.57826,13.40723,Benguela,151226.0,POINT (13.40723 -12.57826)
AGO,671.0,-14.91001,13.49002,Lubango,125632.0,POINT (13.49002 -14.91001)
AGO,672.0,-15.19004,12.16002,Namibe,132900.0,POINT (12.16002 -15.19004)
BOL,673.0,-21.51669,-64.74999,Tarija,159269.0,POINT (-64.74999 -21.51669)
BRB,674.0,13.102,-59.61653,Bridgetown,191152.0,POINT (-59.61653 13.102)
DZA,675.0,36.92001,7.75998,Annaba,503524.0,POINT (7.75998 36.92001)
BEN,676.0,9.34001,2.62004,Parakou,188853.0,POINT (2.62004 9.34001)
BEN,677.0,6.48331,2.61663,Porto-Novo,300000.0,POINT (2.61663 6.48331)
DZA,678.0,36.35999,6.59995,Constantine,605179.0,POINT (6.59995 36.35999)
BLR,679.0,52.09998,23.69999,Brest,300715.0,POINT (23.69999 52.09998)
BGD,680.0,22.83999,89.56,Khulna,1553000.0,POINT (89.56 22.83999)
BWA,681.0,-21.17004,27.50002,Francistown,89979.0,POINT (27.50002 -21.17004)
BWA,682.0,-23.1,26.82001,Mahalapye,50744.0,POINT (26.82001 -23.1)
BWA,683.0,-22.39002,26.71004,Serowe,48573.0,POINT (26.71004 -22.39002)
AUS,684.0,-14.46662,132.26659,Katherine,10141.0,POINT (132.26659 -14.46662)
AUS,685.0,-33.65641,115.34866,Busselton,10214.0,POINT (115.34866 -33.65641)
AUS,686.0,-32.52348,115.74706,Mandurah,73356.0,POINT (115.74706 -32.52348)
AUS,687.0,-17.96177,122.23077,Broome,13218.0,POINT (122.23077 -17.96177)
AUS,688.0,-30.7354,121.46002,Kalgoorlie,36852.0,POINT (121.46002 -30.7354)
AUS,689.0,-35.01695,117.8916,Albany,26445.0,POINT (117.8916 -35.01695)
AUS,690.0,-20.3104,118.60603,Port Hedland,14288.0,POINT (118.60603 -20.3104)
AUS,691.0,-20.73038,116.87001,Karratha,16796.0,POINT (116.87001 -20.73038)
AUS,692.0,-28.76663,114.59997,Geraldton,27258.0,POINT (114.59997 -28.76663)
AUS,693.0,-34.29001,146.04002,Griffith,15455.0,POINT (146.04002 -34.29001)
AUS,694.0,-33.28,149.09998,Orange,39329.0,POINT (149.09998 -33.28)
AUS,695.0,-32.25996,148.59733,Dubbo,31574.0,POINT (148.59733 -32.25996)
AUS,696.0,-30.51231,151.66748,Armidale,22673.0,POINT (151.66748 -30.51231)
AUS,697.0,-31.94995,141.43311,Broken Hill,17395.0,POINT (141.43311 -31.94995)
AUS,698.0,-34.73324,135.86658,Port Lincoln,13630.0,POINT (135.86658 -34.73324)
AUS,699.0,-33.02503,137.56141,Whyalla,22559.0,POINT (137.56141 -33.02503)
AUS,700.0,-38.34,141.59,Portland,11808.0,POINT (141.59 -38.34)
AUS,701.0,-36.75999,144.28002,Bendigo,81657.0,POINT (144.28002 -36.75999)
AUS,702.0,-36.36002,146.3,Wangaratta,14022.0,POINT (146.3 -36.36002)
AUS,703.0,-25.43324,142.6502,Windorah,158.0,POINT (142.6502 -25.43324)
AUS,704.0,-20.72387,139.49003,Mount Isa,33200.0,POINT (139.49003 -20.72387)
AUS,705.0,-23.36391,150.52,Rockhampton,65850.0,POINT (150.52 -23.36391)
AUS,706.0,-16.88784,145.76333,Cairns,154225.0,POINT (145.76333 -16.88784)
AUS,707.0,-28.0815,153.44825,Gold Coast,527660.0,POINT (153.44825 -28.0815)
AUS,708.0,-41.19267,146.3311,Devonport,19317.0,POINT (146.3311 -41.19267)
BFA,709.0,11.17998,-4.28998,Bobo Dioulasso,360106.0,POINT (-4.28998 11.17998)
BGD,710.0,24.37498,88.60502,Rajshahi,810000.0,POINT (88.60502 24.37498)
MMR,711.0,21.96999,96.08503,Mandalay,1300000.0,POINT (96.08503 21.96999)
MMR,712.0,20.14,92.88,Sittwe,179032.0,POINT (92.88 20.14)
BDI,713.0,-3.37609,29.36001,Bujumbura,331700.0,POINT (29.36001 -3.37609)
USA,714.0,-14.27661,-170.70665,Pago Pago,12576.0,POINT (-170.70665 -14.27661)
VCT,715.0,13.14828,-61.21206,Kingstown,49485.0,POINT (-61.21206 13.14828)
LCA,716.0,14.00197,-61.00001,Castries,37963.0,POINT (-61.00001 14.00197)
KNA,717.0,17.30203,-62.71701,Basseterre,21887.0,POINT (-62.71701 17.30203)
ESP,718.0,28.09998,-15.43,Las Palmas,378495.0,POINT (-15.43 28.09998)
SOL,719.0,10.43555,45.01641,Berbera,242344.0,POINT (45.01641 10.43555)
MUS,720.0,-20.16664,57.49999,Port Louis,595491.0,POINT (57.49999 -20.16664)
PSE,721.0,31.53,34.44502,Gaza,505700.0,POINT (34.44502 31.53)
GRD,722.0,12.05263,-61.74164,Saint George's,33734.0,POINT (-61.74164 12.05263)
FRA,723.0,-17.53336,-149.56667,Papeete,131695.0,POINT (-149.56667 -17.53336)
BHR,724.0,26.23614,50.58305,Manama,563920.0,POINT (50.58305 26.23614)
BHS,725.0,26.53328,-78.70001,Freeport,25383.0,POINT (-78.70001 26.53328)
ATG,726.0,17.11804,-61.85003,Saint John's,35499.0,POINT (-61.85003 17.11804)
TWN,727.0,24.15208,120.68167,Taichung,2629323.0,POINT (120.68167 24.15208)
IND,728.0,11.25044,75.76999,Kozhikode,953000.0,POINT (75.76999 11.25044)
IND,729.0,20.27043,85.82736,Bhubaneshwar,844000.0,POINT (85.82736 20.27043)
IND,730.0,22.78754,86.19752,Jamshedpur,1300000.0,POINT (86.19752 22.78754)
URY,731.0,-34.85804,-56.17105,Montevideo,1513000.0,POINT (-56.17105 -34.85804)
USA,732.0,46.59275,-112.03529,Helena,38725.0,POINT (-112.03529 46.59275)
USA,733.0,46.80832,-100.78332,Bismarck,63871.0,POINT (-100.78332 46.80832)
USA,734.0,43.60859,-116.22749,Boise,338071.0,POINT (-116.22749 43.60859)
USA,735.0,37.29998,-121.84999,San Jose,1668000.0,POINT (-121.84999 37.29998)
USA,736.0,38.57502,-121.47004,Sacramento,1604000.0,POINT (-121.47004 38.57502)
USA,737.0,36.21,-115.22001,Las Vegas,1823000.0,POINT (-115.22001 36.21)
USA,738.0,35.68693,-105.93724,Santa Fe,92681.0,POINT (-105.93724 35.68693)
USA,739.0,45.52002,-122.67999,Portland,1875000.0,POINT (-122.67999 45.52002)
USA,740.0,40.77502,-111.93005,Salt Lake City,966000.0,POINT (-111.93005 40.77502)
USA,741.0,41.14001,-104.81971,Cheyenne,72927.0,POINT (-104.81971 41.14001)
USA,742.0,41.57998,-93.61998,Des Moines,380655.0,POINT (-93.61998 41.57998)
USA,743.0,41.24,-96.00999,Omaha,877110.0,POINT (-96.00999 41.24)
USA,744.0,35.47004,-97.51868,Oklahoma City,788000.0,POINT (-97.51868 35.47004)
USA,745.0,44.36834,-100.35055,Pierre,13879.0,POINT (-100.35055 44.36834)
USA,746.0,29.48733,-98.50731,San Antonio,1473000.0,POINT (-98.50731 29.48733)
VEN,747.0,7.77,-72.24997,San Cristobal,438798.0,POINT (-72.24997 7.77)
VEN,748.0,10.22998,-67.98002,Valencia,1770000.0,POINT (-67.98002 10.22998)
USA,749.0,32.29882,-90.185,Jackson,250902.0,POINT (-90.185 32.29882)
USA,750.0,35.81878,-78.64469,Raleigh,1163515.0,POINT (-78.64469 35.81878)
USA,751.0,41.46999,-81.695,Cleveland,1890000.0,POINT (-81.695 41.46999)
USA,752.0,39.16188,-84.45692,Cincinnati,1636000.0,POINT (-84.45692 39.16188)
USA,753.0,36.16997,-86.77998,Nashville,877000.0,POINT (-86.77998 36.16997)
USA,754.0,35.11999,-90.0,Memphis,1081000.0,POINT (-90 35.11999)
USA,755.0,36.84996,-76.28001,Norfolk,1047869.0,POINT (-76.28001 36.84996)
USA,756.0,43.05266,-87.91997,Milwaukee,1388000.0,POINT (-87.91997 43.05266)
USA,757.0,42.87998,-78.88,Buffalo,1016000.0,POINT (-78.88 42.87998)
USA,758.0,40.43,-79.99999,Pittsburgh,1838000.0,POINT (-79.99999 40.43)
VEN,759.0,8.37002,-62.61999,Ciudad Guayana,746535.0,POINT (-62.61999 8.37002)
TGO,760.0,6.13194,1.22276,Lome,1452000.0,POINT (1.22276 6.13194)
TUN,761.0,36.80278,10.17968,Tunis,2412500.0,POINT (10.17968 36.80278)
USA,762.0,57.79,-152.40699,Kodiak,9461.0,POINT (-152.40699 57.79)
USA,763.0,55.2,-162.71509,Cold Bay,200.0,POINT (-162.71509 55.2)
USA,764.0,60.7933,-161.7558,Bethel,6228.0,POINT (-161.7558 60.7933)
USA,765.0,68.34773,-166.80802,Point Hope,461.0,POINT (-166.80802 68.34773)
USA,766.0,71.29057,-156.78858,Barrow,4336.0,POINT (-156.78858 71.29057)
USA,767.0,64.5061,-165.40637,Nome,3485.0,POINT (-165.40637 64.5061)
USA,768.0,61.136,-146.34829,Valdez,4036.0,POINT (-146.34829 61.136)
USA,769.0,58.31413,-134.42,Juneau,30711.0,POINT (-134.42 58.31413)
USA,770.0,64.83698,-147.71066,Fairbanks,56993.0,POINT (-147.71066 64.83698)
USA,771.0,70.29218,-148.66936,Prudhoe Bay,2500.0,POINT (-148.66936 70.29218)
UKR,772.0,44.59998,33.46498,Sevastapol,379200.0,POINT (33.46498 44.59998)
ARE,773.0,24.46668,54.36659,Abu Dhabi,603492.0,POINT (54.36659 24.46668)
TKM,774.0,37.94999,58.3833,Ashgabat,727700.0,POINT (58.3833 37.94999)
UZB,775.0,39.67002,66.945,Samarqand,708000.0,POINT (66.945 39.67002)
ZMB,776.0,-15.41664,28.28333,Lusaka,1328000.0,POINT (28.28333 -15.41664)
ZWE,777.0,-17.81779,31.04471,Harare,1572000.0,POINT (31.04471 -17.81779)
ZWE,778.0,-20.17,28.58,Bulawayo,699385.0,POINT (28.58 -20.17)
TLS,779.0,-8.55939,125.57946,Dili,234331.0,POINT (125.57946 -8.55939)
VUT,780.0,-17.73335,168.31664,Port Vila,44040.0,POINT (168.31664 -17.73335)
HND,781.0,14.10204,-87.21753,Tegucigalpa,946000.0,POINT (-87.21753 14.10204)
GUY,782.0,6.80197,-58.16703,Georgetown,264350.0,POINT (-58.16703 6.80197)
ISL,783.0,64.15002,-21.95001,Reykjavík,166212.0,POINT (-21.95001 64.15002)
HTI,784.0,18.54102,-72.33603,Port-au-Prince,1998000.0,POINT (-72.33603 18.54102)
GBR,785.0,55.8744,-4.25071,Glasgow,1160000.0,POINT (-4.25071 55.8744)
UGA,786.0,0.31666,32.58332,Kampala,1420000.0,POINT (32.58332 0.31666)
YEM,787.0,12.77972,45.00949,Aden,1000000.0,POINT (45.00949 12.77972)
SUR,788.0,5.83503,-55.16703,Paramaribo,254169.0,POINT (-55.16703 5.83503)
ESP,789.0,37.40502,-5.98001,Seville,1212045.0,POINT (-5.98001 37.40502)
NER,790.0,13.8,8.98332,Zinder,230358.0,POINT (8.98332 13.8)
NER,791.0,13.51671,2.11666,Niamey,915000.0,POINT (2.11666 13.51671)
SDN,792.0,19.61579,37.21643,Port Sudan,489725.0,POINT (37.21643 19.61579)
TJK,793.0,38.56004,68.77388,Dushanbe,1086244.0,POINT (68.77388 38.56004)
PER,794.0,-13.52503,-71.97215,Cusco,361182.0,POINT (-71.97215 -13.52503)
PER,795.0,-18.0,-70.25001,Tacna,280098.0,POINT (-70.25001 -18)
PER,796.0,-8.12004,-79.01997,Trujillo,765171.0,POINT (-79.01997 -8.12004)
PER,797.0,-14.06799,-75.72549,Ica,279420.0,POINT (-75.72549 -14.06799)
PRY,798.0,-25.2964,-57.64151,Asuncion,1870000.0,POINT (-57.64151 -25.2964)
NIC,799.0,12.15302,-86.26849,Managua,920000.0,POINT (-86.26849 12.15302)
SLE,800.0,8.47001,-13.23422,Freetown,827000.0,POINT (-13.23422 8.47001)
NER,801.0,16.99587,7.98281,Agadez,117770.0,POINT (7.98281 16.99587)
SDN,802.0,12.05997,24.88999,Niyala,392373.0,POINT (24.88999 12.05997)
SSD,803.0,7.69998,27.98996,Wau,127384.0,POINT (27.98996 7.69998)
SDN,804.0,19.16659,30.4833,Dongola,26404.0,POINT (30.4833 19.16659)
SDN,805.0,15.45997,36.39002,Kassala,401477.0,POINT (36.39002 15.45997)
NOR,806.0,69.63508,18.99203,Tromsø,52436.0,POINT (18.99203 69.63508)
NOR,807.0,63.41666,10.41667,Trondheim,147139.0,POINT (10.41667 63.41666)
NOR,808.0,60.391,5.32452,Bergen,213585.0,POINT (5.32452 60.391)
PAK,809.0,33.7,73.16663,Islamabad,780000.0,POINT (73.16663 33.7)
PAK,810.0,30.19998,71.45501,Multan,1522000.0,POINT (71.45501 30.19998)
PAK,811.0,25.37999,68.37499,Hyderabad,1459000.0,POINT (68.37499 25.37999)
PAK,812.0,34.00502,71.535,Peshawar,1303000.0,POINT (71.535 34.00502)
NPL,813.0,27.71669,85.31664,Kathmandu,895000.0,POINT (85.31664 27.71669)
MOZ,814.0,-14.51861,40.71502,Nacala,224795.0,POINT (40.71502 -14.51861)
ZAF,815.0,-29.11999,26.22991,Bloemfontein,463064.0,POINT (26.22991 -29.11999)
ZAF,816.0,-25.70692,28.22943,Pretoria,1338000.0,POINT (28.22943 -25.70692)
PNG,817.0,-9.46471,147.1925,Port Moresby,283733.0,POINT (147.1925 -9.46471)
SLB,818.0,-9.43799,159.94977,Honiara,76328.0,POINT (159.94977 -9.43799)
PAN,819.0,8.96802,-79.53304,Panama City,1281000.0,POINT (-79.53304 8.96802)
MAR,820.0,34.0546,-5.00038,Fez,1002000.0,POINT (-5.00038 34.0546)
MAR,821.0,34.0253,-6.83613,Rabat,1705000.0,POINT (-6.83613 34.0253)
MAR,822.0,31.62999,-7.99999,Marrakesh,872000.0,POINT (-7.99999 31.62999)
MDA,823.0,47.00502,28.85771,Chisinau,688134.0,POINT (28.85771 47.00502)
MOZ,824.0,-19.82004,34.87001,Beira,530604.0,POINT (34.87001 -19.82004)
ZAF,825.0,-33.97003,25.60003,Port Elizabeth,1021000.0,POINT (25.60003 -33.97003)
MOZ,826.0,-25.95528,32.58916,Maputo,1446000.0,POINT (32.58916 -25.95528)
RUS,827.0,56.49499,84.97501,Tomsk,535479.0,POINT (84.97501 56.49499)
RUS,828.0,64.73699,177.475,Anadyr,10332.0,POINT (177.475 64.73699)
RUS,829.0,68.96999,33.10004,Murmansk,319263.0,POINT (33.10004 68.96999)
RUS,830.0,64.57496,40.54501,Archangel,356051.0,POINT (40.54501 64.57496)
RUS,831.0,56.33301,44.00009,Nizhny Novgorod,1278000.0,POINT (44.00009 56.33301)
RUS,832.0,48.71001,44.49996,Volgograd,984000.0,POINT (44.49996 48.71001)
RUS,833.0,54.78997,56.04003,Ufa,1018000.0,POINT (56.04003 54.78997)
RUS,834.0,56.85003,60.59996,Yekaterinburg,1313000.0,POINT (60.59996 56.85003)
RUS,835.0,53.19501,50.1513,Samara,1137000.0,POINT (50.1513 53.19501)
RUS,836.0,55.74994,49.12634,Kazan,1115000.0,POINT (49.12634 55.74994)
RUS,837.0,61.25994,73.42502,Surgut,400000.0,POINT (73.42502 61.25994)
RUS,838.0,53.355,83.74501,Barnaul,599579.0,POINT (83.74501 53.355)
RUS,839.0,55.02996,82.96004,Novosibirsk,1389000.0,POINT (82.96004 55.02996)
SOM,840.0,2.06668,45.36668,Mogadishu,1100000.0,POINT (45.36668 2.06668)
OMN,841.0,23.61332,58.59331,Muscat,734697.0,POINT (58.59331 23.61332)
LKA,842.0,6.93197,79.85775,Colombo,217000.0,POINT (79.85775 6.93197)
PHL,843.0,10.31998,123.90008,Cebu,815000.0,POINT (123.90008 10.31998)
PHL,844.0,10.70504,122.54502,Iloilo,387681.0,POINT (122.54502 10.70504)
PHL,845.0,7.11002,125.63,Davao,1402000.0,POINT (125.63 7.11002)
RUS,846.0,56.157,101.61503,Bratsk,246348.0,POINT (101.61503 56.157)
RUS,847.0,52.31997,104.24505,Irkutsk,586695.0,POINT (104.24505 52.31997)
RUS,848.0,56.01398,92.866,Krasnoyarsk,925000.0,POINT (92.866 56.01398)
RUS,849.0,73.50697,80.5451,Dickson,1113.0,POINT (80.5451 73.50697)
RUS,850.0,52.05503,113.465,Chita,308500.0,POINT (113.465 52.05503)
RUS,851.0,43.13001,131.91003,Vladivostok,587022.0,POINT (131.91003 43.13001)
RUS,852.0,71.43333,136.06662,Nizhneyansk,400.0,POINT (136.06662 71.43333)
RUS,853.0,62.03496,129.73502,Yakutsk,235600.0,POINT (129.73502 62.03496)
RUS,854.0,71.62689,128.83497,Tiksi,5700.0,POINT (128.83497 71.62689)
RUS,855.0,59.57498,150.81001,Magadan,95282.0,POINT (150.81001 59.57498)
MEX,856.0,32.50002,-117.08,Tijuana,1553000.0,POINT (-117.08 32.50002)
MEX,857.0,28.64498,-106.08498,Chihuahua,793000.0,POINT (-106.08498 28.64498)
MEX,858.0,23.2211,-106.42,Mazatlan,368204.0,POINT (-106.42 23.2211)
MEX,859.0,22.30002,-97.87001,Tampico,859419.0,POINT (-97.87001 22.30002)
MEX,860.0,16.84999,-99.91598,Acapulco,715584.0,POINT (-99.91598 16.84999)
MEX,861.0,19.17734,-96.15998,Veracruz,578963.0,POINT (-96.15998 19.17734)
MEX,862.0,16.75,-93.15001,Tuxtla Gutierrez,481128.0,POINT (-93.15001 16.75)
MEX,863.0,21.16996,-86.83001,Cancun,542043.0,POINT (-86.83001 21.16996)
MEX,864.0,20.96664,-89.61663,Merida,965000.0,POINT (-89.61663 20.96664)
NGA,865.0,6.45003,7.5,Enugu,688862.0,POINT (7.5 6.45003)
NGA,866.0,13.06002,5.24003,Sokoto,732178.0,POINT (5.24003 13.06002)
RUS,867.0,57.99996,56.24999,Perm,997000.0,POINT (56.24999 57.99996)
MNG,868.0,49.0533,104.11834,Erdenet,79647.0,POINT (104.11834 49.0533)
MNG,869.0,47.91667,106.91662,Ulaanbaatar,885000.0,POINT (106.91662 47.91667)
NZL,870.0,-41.29997,174.78327,Wellington,393400.0,POINT (174.78327 -41.29997)
TZA,871.0,-8.89001,33.43004,Mbeya,291649.0,POINT (33.43004 -8.89001)
NAM,872.0,-22.57001,17.08355,Windhoek,268132.0,POINT (17.08355 -22.57001)
NAM,873.0,-19.56662,18.11656,Grootfontein,24099.0,POINT (18.11656 -19.56662)
TZA,874.0,-6.16,39.20003,Zanzibar,403658.0,POINT (39.20003 -6.16)
NZL,875.0,-43.53503,172.63002,Christchurch,363926.0,POINT (172.63002 -43.53503)
ESP,876.0,39.48502,-0.40001,Valencia,808000.0,POINT (-0.40001 39.48502)
RUS,877.0,59.084,159.95002,Palana,3671.0,POINT (159.95002 59.084)
RUS,878.0,53.06199,158.62302,Petropavlovsk Kamchatskiy,187282.0,POINT (158.62302 53.06199)
NGA,879.0,9.08333,7.53333,Abuja,1576000.0,POINT (7.53333 9.08333)
IDN,880.0,-0.96001,100.36001,Padang,855000.0,POINT (100.36001 -0.96001)
GNB,881.0,11.86502,-15.59836,Bissau,403339.0,POINT (-15.59836 11.86502)
ITA,882.0,38.12502,13.35003,Palermo,863000.0,POINT (13.35003 38.12502)
JOR,883.0,31.95003,35.9333,Amman,1060000.0,POINT (35.9333 31.95003)
LTU,884.0,54.68337,25.31664,Vilnius,542366.0,POINT (25.31664 54.68337)
LVA,885.0,56.95002,24.09997,Riga,742572.0,POINT (24.09997 56.95002)
KGZ,886.0,42.87308,74.5852,Bishkek,837000.0,POINT (74.5852 42.87308)
CHN,887.0,39.82001,98.29998,Jiayuguan,148279.0,POINT (98.29998 39.82001)
CHN,888.0,36.62,101.77,Xining,1048000.0,POINT (101.77 36.62)
CHN,889.0,25.27999,110.28003,Guilin,987000.0,POINT (110.28003 25.27999)
CHN,890.0,32.62998,116.97998,Huainan,1451000.0,POINT (116.97998 32.62998)
CHN,891.0,23.37001,116.67003,Shantou,1601000.0,POINT (116.67003 23.37001)
IDN,892.0,3.30002,117.63302,Tarakan,193069.0,POINT (117.63302 3.30002)
KEN,893.0,-4.04003,39.68992,Mombasa,882000.0,POINT (39.68992 -4.04003)
LSO,894.0,-29.31667,27.48327,Maseru,361324.0,POINT (27.48327 -29.31667)
MDG,895.0,-18.91664,47.51662,Antananarivo,1697000.0,POINT (47.51662 -18.91664)
IDN,896.0,-6.96662,110.42002,Semarang,1396000.0,POINT (110.42002 -6.96662)
IDN,897.0,-2.98004,104.75003,Palembang,1749000.0,POINT (104.75003 -2.98004)
IDN,898.0,-3.32999,114.58008,Bandjarmasin,603576.0,POINT (114.58008 -3.32999)
IDN,899.0,-5.13996,119.43203,Ujungpandang,1262000.0,POINT (119.43203 -5.13996)
FRA,900.0,45.77001,4.83003,Lyon,1423000.0,POINT (4.83003 45.77001)
ECU,901.0,-0.21499,-78.50005,Quito,1701000.0,POINT (-78.50005 -0.21499)
CRI,902.0,9.93501,-84.08405,San Jose,1284000.0,POINT (-84.08405 9.93501)
SLV,903.0,13.71,-89.20304,San Salvador,1433000.0,POINT (-89.20304 13.71)
JAM,904.0,17.97708,-76.76743,Kingston,937700.0,POINT (-76.76743 17.97708)
COL,905.0,10.39974,-75.51439,Cartagena,887000.0,POINT (-75.51439 10.39974)
COL,906.0,1.19831,-70.17361,Mitu,5917.0,POINT (-70.17361 1.19831)
COD,907.0,2.18998,22.45996,Bumba,160539.0,POINT (22.45996 2.18998)
TCD,908.0,12.1131,15.04915,Ndjamena,989000.0,POINT (15.04915 12.1131)
TCD,909.0,13.83999,20.82998,Abeche,158317.0,POINT (20.82998 13.83999)
GNQ,910.0,3.75002,8.78328,Malabo,155963.0,POINT (8.78328 3.75002)
EGY,911.0,25.70002,32.65004,Luxor,609248.0,POINT (32.65004 25.70002)
ERI,912.0,15.33334,38.93332,Asmara,620802.0,POINT (38.93332 15.33334)
HRV,913.0,45.80001,15.99999,Zagreb,722526.0,POINT (15.99999 45.80001)
EST,914.0,59.43388,24.72804,Tallinn,394024.0,POINT (24.72804 59.43388)
CHN,915.0,29.64502,91.10001,Lhasa,219599.0,POINT (91.10001 29.64502)
CHN,916.0,42.82698,93.515,Hami,300848.0,POINT (93.515 42.82698)
CHN,917.0,37.09971,79.92695,Hotan,261730.0,POINT (79.92695 37.09971)
CHN,918.0,39.47634,75.96993,Kashgar,543914.0,POINT (75.96993 39.47634)
CHN,919.0,38.46797,106.27304,Yinchuan,991000.0,POINT (106.27304 38.46797)
CHN,920.0,27.62001,113.85004,Pingxiang,961000.0,POINT (113.85004 27.62001)
JPN,921.0,32.76499,129.88503,Nagasaki,435455.0,POINT (129.88503 32.76499)
CHN,922.0,47.34498,123.98999,Qiqihar,1641000.0,POINT (123.98999 47.34498)
COD,923.0,-5.03004,18.85,Kikwit,637736.0,POINT (18.85 -5.03004)
COD,924.0,-5.81661,13.45002,Matadi,245862.0,POINT (13.45002 -5.81661)
COD,925.0,-10.71672,25.47244,Kolwezi,418000.0,POINT (25.47244 -10.71672)
COD,926.0,-11.68002,27.48002,Lubumbashi,1352000.0,POINT (27.48002 -11.68002)
MWI,927.0,-13.9833,33.7833,Lilongwe,646750.0,POINT (33.7833 -13.9833)
GTM,928.0,14.62113,-90.52697,Guatemala,1024000.0,POINT (-90.52697 14.62113)
FRA,929.0,4.93299,-52.33002,Cayenne,61550.0,POINT (-52.33002 4.93299)
GAB,930.0,0.38539,9.45797,Libreville,578156.0,POINT (9.45797 0.38539)
IND,931.0,17.73001,83.30498,Vishakhapatnam,1529000.0,POINT (83.30498 17.73001)
FJI,932.0,-18.13302,178.44171,Suva,175399.0,POINT (178.44171 -18.13302)
GAB,933.0,-0.72002,8.78002,Port-Gentil,116836.0,POINT (8.78002 -0.72002)
MLI,934.0,16.76659,-3.0166,Timbuktu,68872.0,POINT (-3.0166 16.76659)
CHL,935.0,-53.16499,-70.94,Punta Arenas,117430.0,POINT (-70.94 -53.16499)
CHL,936.0,-20.24999,-70.12997,Iquique,227499.0,POINT (-70.12997 -20.24999)
CHL,937.0,-23.64999,-70.4,Antofagasta,309832.0,POINT (-70.4 -23.64999)
CHL,938.0,-33.04776,-71.62101,Valparaiso,854000.0,POINT (-71.62101 -33.04776)
CHL,939.0,-39.795,-73.24502,Valdivia,159599.0,POINT (-73.24502 -39.795)
CHL,940.0,-36.83001,-73.05002,Concepcion,889725.0,POINT (-73.05002 -36.83001)
CHL,941.0,-41.46999,-72.92998,Puerto Montt,174629.0,POINT (-72.92998 -41.46999)
DNK,942.0,64.19828,-51.73266,Nuuk,14798.0,POINT (-51.73266 64.19828)
MRT,943.0,18.08643,-15.97534,Nouakchott,742144.0,POINT (-15.97534 18.08643)
MLI,944.0,12.65001,-8.00004,Bamako,1494000.0,POINT (-8.00004 12.65001)
MRT,945.0,20.51664,-13.04999,Atar,44265.0,POINT (-13.04999 20.51664)
MLI,946.0,13.89999,-4.54999,Djenne,32944.0,POINT (-4.54999 13.89999)
LBY,947.0,27.03327,14.43332,Sabha,100249.0,POINT (14.43332 27.03327)
LBY,948.0,32.11673,20.06672,Banghazi,1180000.0,POINT (20.06672 32.11673)
GRC,949.0,40.69611,22.885,Thessaloniki,828000.0,POINT (22.885 40.69611)
LBN,950.0,33.87198,35.50971,Beirut,1846000.0,POINT (35.50971 33.87198)
GEO,951.0,41.72501,44.7908,Tbilisi,1100000.0,POINT (44.7908 41.72501)
ETH,952.0,12.61004,37.46003,Gonder,156230.0,POINT (37.46003 12.61004)
KAZ,953.0,51.18113,71.42777,Astana,345604.0,POINT (71.42777 51.18113)
KAZ,954.0,49.88498,73.11501,Qaraghandy,451800.0,POINT (73.11501 49.88498)
KAZ,955.0,43.32499,76.91504,Almaty,1209000.0,POINT (76.91504 43.32499)
IRN,956.0,32.70001,51.70004,Isfahan,1628000.0,POINT (51.70004 32.70001)
IRN,957.0,29.62996,52.57001,Shiraz,1240000.0,POINT (52.57001 29.62996)
IND,958.0,31.63999,74.86999,Amritsar,1212000.0,POINT (74.86999 31.63999)
IND,959.0,25.32999,83.00004,Varanasi,1352000.0,POINT (83.00004 25.32999)
IND,960.0,23.68333,86.98333,Asansol,1328000.0,POINT (86.98333 23.68333)
IND,961.0,21.21667,81.43333,Bhilai,1097000.0,POINT (81.43333 21.21667)
IND,962.0,23.24999,77.40999,Bhopal,1727000.0,POINT (77.40999 23.24999)
IND,963.0,9.92003,78.12003,Madurai,1294000.0,POINT (78.12003 9.92003)
IND,964.0,10.99996,76.95002,Coimbatore,1696000.0,POINT (76.95002 10.99996)
LAO,965.0,17.96669,102.59998,Vientiane,754000.0,POINT (102.59998 17.96669)
COG,966.0,-4.25919,15.28469,Brazzaville,1355000.0,POINT (15.28469 -4.25919)
GIN,967.0,9.53152,-13.68024,Conakry,1494000.0,POINT (-13.68024 9.53152)
CIV,968.0,6.81838,-5.2755,Yamoussoukro,206499.0,POINT (-5.2755 6.81838)
BRA,969.0,-7.62999,-72.66997,Cruzeiro do Sul,56862.0,POINT (-72.66997 -7.62999)
COL,970.0,-4.22002,-69.93998,Leticia,59575.0,POINT (-69.93998 -4.22002)
BRA,971.0,-3.10003,-60.00002,Manaus,1753000.0,POINT (-60.00002 -3.10003)
BRA,972.0,-4.833,-43.35003,Caxias,134640.0,POINT (-43.35003 -4.833)
BRA,973.0,-2.43325,-54.69998,Santarem,230428.0,POINT (-54.69998 -2.43325)
BRA,974.0,-5.34997,-49.11598,Maraba,166182.0,POINT (-49.11598 -5.34997)
BRA,975.0,-12.7166,-60.1166,Vilhena,63231.0,POINT (-60.1166 -12.7166)
BRA,976.0,-10.83331,-61.967,Ji-Parana,65016.0,POINT (-61.967 -10.83331)
BRA,977.0,-20.45003,-54.61663,Campo Grande,778000.0,POINT (-54.61663 -20.45003)
BRA,978.0,-27.57998,-48.52002,Florianopolis,1023000.0,POINT (-48.52002 -27.57998)
BRA,979.0,-12.25002,-38.97001,Feira de Santana,481911.0,POINT (-38.97001 -12.25002)
CAN,980.0,49.88299,-97.16599,Winnipeg,632063.0,POINT (-97.16599 49.88299)
CAN,981.0,58.76599,-94.16599,Churchill,1000.0,POINT (-94.16599 58.76599)
CAN,982.0,50.45003,-104.61701,Regina,176183.0,POINT (-104.61701 50.45003)
CAN,983.0,52.17003,-106.66999,Saskatoon,198958.0,POINT (-106.66999 52.17003)
CAN,984.0,51.08299,-114.08,Calgary,1110000.0,POINT (-114.08 51.08299)
CAN,985.0,54.31667,-130.32999,Prince Rupert,14708.0,POINT (-130.32999 54.31667)
CAN,986.0,48.43328,-123.35,Victoria,289625.0,POINT (-123.35 48.43328)
CAN,987.0,73.03331,-85.16662,Arctic Bay,604.0,POINT (-85.16662 73.03331)
CAN,988.0,74.68333,-94.90001,Resolute,250.0,POINT (-94.90001 74.68333)
CAN,989.0,66.52947,-86.28294,Repulse Bay,1000.0,POINT (-86.28294 66.52947)
CAN,990.0,62.44201,-114.39698,Yellowknife,19234.0,POINT (-114.39698 62.44201)
CAN,991.0,66.26661,-128.63332,Fort Good Hope,597.0,POINT (-128.63332 66.26661)
CAN,992.0,60.71672,-135.04998,Whitehorse,23276.0,POINT (-135.04998 60.71672)
BRA,993.0,2.81609,-60.666,Boa Vista,235150.0,POINT (-60.666 2.81609)
BRA,994.0,0.03301,-51.05002,Macapá,499166.0,POINT (-51.05002 0.03301)
CAN,995.0,45.4167,-75.70002,Ottawa,1145000.0,POINT (-75.70002 45.4167)
CAN,996.0,55.98334,-87.64998,Fort Severn,125.0,POINT (-87.64998 55.98334)
CAN,997.0,48.44615,-89.27497,Thunder Bay,99334.0,POINT (-89.27497 48.44615)
CAN,998.0,46.83997,-71.24561,Québec,624177.0,POINT (-71.24561 46.83997)
CAN,999.0,44.65003,-63.6,Halifax,359111.0,POINT (-63.6 44.65003)
CAN,1000.0,47.58499,-52.68101,St. Johns,131469.0,POINT (-52.68101 47.58499)
CAN,1001.0,56.54735,-61.68605,Nain,1151.0,POINT (-61.68605 56.54735)
CAN,1002.0,46.24928,-63.13133,Charlottetown,42402.0,POINT (-63.13133 46.24928)
CAF,1003.0,8.40914,20.65304,Ndele,11764.0,POINT (20.65304 8.40914)
SRB,1004.0,44.81865,20.46799,Belgrade,1099000.0,POINT (20.46799 44.81865)
CAF,1005.0,5.39999,26.50003,Obo,12887.0,POINT (26.50003 5.39999)
BRN,1006.0,4.88333,114.93328,Bandar Seri Begawan,296500.0,POINT (114.93328 4.88333)
ARG,1007.0,-47.75002,-65.89997,Puerto Deseado,3305.0,POINT (-65.89997 -47.75002)
ARG,1008.0,-51.6333,-69.21659,Rio Gallegos,85700.0,POINT (-69.21659 -51.6333)
ARG,1009.0,-45.87003,-67.5,Comodoro Rivadavia,140850.0,POINT (-67.5 -45.87003)
ARG,1010.0,-32.88333,-68.81661,Mendoza,893000.0,POINT (-68.81661 -32.88333)
BOL,1011.0,-19.04097,-65.25952,Sucre,224838.0,POINT (-65.25952 -19.04097)
BOL,1012.0,-10.98301,-66.10001,Riberalta,74014.0,POINT (-66.10001 -10.98301)
ARG,1013.0,-38.74003,-62.26502,Bahia Blanca,281536.0,POINT (-62.26502 -38.74003)
ARG,1014.0,-38.00002,-57.57998,Mar del Plata,555897.0,POINT (-57.57998 -38.00002)
ARG,1015.0,-31.39996,-64.18229,Córdoba,1452000.0,POINT (-64.18229 -31.39996)
ARG,1016.0,-27.35783,-55.88511,Posadas,357119.0,POINT (-55.88511 -27.35783)
BLZ,1017.0,17.25203,-88.76707,Belmopan,15220.0,POINT (-88.76707 17.25203)
CAF,1018.0,4.36664,18.55829,Bangui,831925.0,POINT (18.55829 4.36664)
CMR,1019.0,10.59557,14.3247,Maroua,319941.0,POINT (14.3247 10.59557)
CMR,1020.0,3.8667,11.51665,Yaounde,1611000.0,POINT (11.51665 3.8667)
ALB,1021.0,41.32754,19.81888,Tirana,895350.0,POINT (19.81888 41.32754)
ARM,1022.0,40.18115,44.51355,Yerevan,1102000.0,POINT (44.51355 40.18115)
AZE,1023.0,40.39527,49.86222,Baku,2122300.0,POINT (49.86222 40.39527)
AFG,1024.0,31.61002,65.69495,Kandahar,715542.0,POINT (65.69495 31.61002)
KHM,1025.0,11.55003,104.91663,Phnom Penh,1466000.0,POINT (104.91663 11.55003)
AGO,1026.0,-14.66661,17.69999,Menongue,13030.0,POINT (17.69999 -14.66661)
AGO,1027.0,-12.74999,15.76001,Huambo,1100000.0,POINT (15.76001 -12.74999)
BOL,1028.0,-16.49797,-68.14999,La Paz,1590000.0,POINT (-68.14999 -16.49797)
BOL,1029.0,-17.75392,-63.226,Santa Cruz,2102998.0,POINT (-63.226 -17.75392)
DZA,1030.0,35.71,-0.61997,Oran,798000.0,POINT (-0.61997 35.71)
BEN,1031.0,6.40001,2.51999,Cotonou,762000.0,POINT (2.51999 6.40001)
DZA,1032.0,22.785,5.5228,Tamanrasset,76000.0,POINT (5.5228 22.785)
DZA,1033.0,32.48999,3.67,Ghardaia,125480.0,POINT (3.67 32.48999)
BGR,1034.0,42.68335,23.31665,Sofia,1185000.0,POINT (23.31665 42.68335)
BLR,1035.0,53.89998,27.56663,Minsk,1805000.0,POINT (27.56663 53.89998)
BTN,1036.0,27.47299,89.63901,Thimphu,98676.0,POINT (89.63901 27.47299)
BWA,1037.0,-24.64631,25.91195,Gaborone,208411.0,POINT (25.91195 -24.64631)
AUS,1038.0,-12.42535,130.85004,Darwin,93080.0,POINT (130.85004 -12.42535)
AUS,1039.0,-23.701,133.88003,Alice Springs,27710.0,POINT (133.88003 -23.701)
AUS,1040.0,-35.28303,149.12903,Canberra,327700.0,POINT (149.12903 -35.28303)
AUS,1041.0,-32.84535,151.81501,Newcastle,1134616.0,POINT (151.81501 -32.84535)
AUS,1042.0,-34.93499,138.6,Adelaide,1145000.0,POINT (138.6 -34.93499)
AUS,1043.0,-19.24995,146.77,Townsville,138954.0,POINT (146.77 -19.24995)
AUS,1044.0,-27.45503,153.03509,Brisbane,1860000.0,POINT (153.03509 -27.45503)
AUS,1045.0,-42.85001,147.29503,Hobart,80870.0,POINT (147.29503 -42.85001)
BFA,1046.0,12.37032,-1.52472,Ouagadougou,1149000.0,POINT (-1.52472 12.37032)
BIH,1047.0,43.85002,18.383,Sarajevo,696731.0,POINT (18.383 43.85002)
MMR,1048.0,19.76656,96.11862,Naypyidaw,930000.0,POINT (96.11862 19.76656)
USA,1049.0,18.44002,-66.12998,San Juan,2478905.0,POINT (-66.12998 18.44002)
GBR,1050.0,-51.70001,-57.84997,Stanley,2213.0,POINT (-57.84997 -51.70001)
GBR,1051.0,32.29419,-64.78394,Hamilton,52320.0,POINT (-64.78394 32.29419)
TON,1052.0,-21.13851,-175.22056,Nukualofa,42620.0,POINT (-175.22056 -21.13851)
SOL,1053.0,9.56002,44.06531,Hargeysa,477876.0,POINT (44.06531 9.56002)
SYC,1054.0,-4.61663,55.44999,Victoria,33576.0,POINT (55.44999 -4.61663)
STP,1055.0,0.3334,6.73333,Sao Tome,88219.0,POINT (6.73333 0.3334)
WSM,1056.0,-13.84155,-171.73864,Apia,61916.0,POINT (-171.73864 -13.84155)
MLT,1057.0,35.89973,14.51471,Valletta,368250.0,POINT (14.51471 35.89973)
MDV,1058.0,4.16671,73.49995,Male,112927.0,POINT (73.49995 4.16671)
ISR,1059.0,31.77841,35.20663,Jerusalem,1029300.0,POINT (35.20663 31.77841)
CPV,1060.0,14.9167,-23.51669,Praia,113364.0,POINT (-23.51669 14.9167)
BHS,1061.0,25.08339,-77.35004,Nassau,227940.0,POINT (-77.35004 25.08339)
CYP,1062.0,35.16668,33.36663,Nicosia,224300.0,POINT (33.36663 35.16668)
TWN,1063.0,22.63331,120.2666,Kaohsiung,2769072.0,POINT (120.2666 22.63331)
CHN,1064.0,22.55237,114.12212,Shenzhen,7581000.0,POINT (114.12212 22.55237)
CHN,1065.0,36.79999,118.04999,Zibo,3061000.0,POINT (118.04999 36.79999)
USA,1066.0,44.97998,-93.25179,Minneapolis,2616000.0,POINT (-93.25179 44.97998)
USA,1067.0,21.30688,-157.858,Honolulu,786000.0,POINT (-157.858 21.30688)
USA,1068.0,47.57,-122.33998,Seattle,3074000.0,POINT (-122.33998 47.57)
USA,1069.0,33.53998,-112.06999,Phoenix,3551000.0,POINT (-112.06999 33.53998)
USA,1070.0,32.82002,-117.17999,San Diego,2916000.0,POINT (-117.17999 32.82002)
USA,1071.0,38.63502,-90.23998,St. Louis,2199000.0,POINT (-90.23998 38.63502)
USA,1072.0,29.995,-90.03997,New Orleans,785000.0,POINT (-90.03997 29.995)
USA,1073.0,32.82002,-96.84002,Dallas,4798000.0,POINT (-96.84002 32.82002)
VEN,1074.0,10.72998,-71.65998,Maracaibo,2072000.0,POINT (-71.65998 10.72998)
USA,1075.0,42.32996,-71.07001,Boston,4467000.0,POINT (-71.07001 42.32996)
USA,1076.0,27.94699,-82.45862,Tampa,2314000.0,POINT (-82.45862 27.94699)
USA,1077.0,39.99997,-75.17,Philadelphia,5492000.0,POINT (-75.17 39.99997)
USA,1078.0,42.32996,-83.08006,Detroit,4101000.0,POINT (-83.08006 42.32996)
USA,1079.0,61.21997,-149.90021,Anchorage,260283.0,POINT (-149.90021 61.21997)
VNM,1080.0,21.03333,105.85001,Hanoi,4378000.0,POINT (105.85001 21.03333)
VNM,1081.0,10.78003,106.69503,Ho Chi Minh City,5314000.0,POINT (106.69503 10.78003)
TUR,1082.0,39.92724,32.86439,Ankara,3716000.0,POINT (32.86439 39.92724)
HUN,1083.0,47.50001,19.08332,Budapest,1679000.0,POINT (19.08332 47.50001)
YEM,1084.0,15.35473,44.20659,Sanaa,2008000.0,POINT (44.20659 15.35473)
ESP,1085.0,41.3833,2.18337,Barcelona,4920000.0,POINT (2.18337 41.3833)
ROU,1086.0,44.43337,26.09995,Bucharest,1942000.0,POINT (26.09995 44.43337)
SYR,1087.0,36.22997,37.17002,Aleppo,2738000.0,POINT (37.17002 36.22997)
SYR,1088.0,33.50003,36.3,Damascus,2466000.0,POINT (36.3 33.50003)
CHE,1089.0,47.37999,8.55001,Zürich,1108000.0,POINT (8.55001 47.37999)
PRT,1090.0,38.72272,-9.14487,Lisbon,2812000.0,POINT (-9.14487 38.72272)
SDN,1091.0,15.58808,32.53418,Khartoum,4754000.0,POINT (32.53418 15.58808)
SAU,1092.0,21.51689,39.2192,Jeddah,3012000.0,POINT (39.2192 21.51689)
SAU,1093.0,21.43002,39.82004,Makkah,1385000.0,POINT (39.82004 21.43002)
NOR,1094.0,59.91669,10.74998,Oslo,835000.0,POINT (10.74998 59.91669)
PAK,1095.0,31.55997,74.35002,Lahore,6577000.0,POINT (74.35002 31.55997)
PAK,1096.0,24.86999,66.99001,Karachi,12130000.0,POINT (66.99001 24.86999)
ZAF,1097.0,-29.86501,30.98001,Durban,2729000.0,POINT (30.98001 -29.86501)
RUS,1098.0,59.93901,30.31602,St. Petersburg,4553000.0,POINT (30.31602 59.93901)
MEX,1099.0,20.67002,-103.33003,Guadalajara,4198000.0,POINT (-103.33003 20.67002)
MEX,1100.0,19.04996,-98.20004,Puebla,2195000.0,POINT (-98.20004 19.04996)
NGA,1101.0,11.99998,8.52004,Kano,3140000.0,POINT (8.52004 11.99998)
POL,1102.0,52.25,21.0,Warsaw,1707000.0,POINT (21 52.25)
PRK,1103.0,39.01944,125.75469,Pyongyang,3300000.0,POINT (125.75469 39.01944)
TZA,1104.0,-6.80001,39.26834,Dar es Salaam,2930000.0,POINT (39.26834 -6.80001)
IDN,1105.0,3.57997,98.65004,Medan,2115000.0,POINT (98.65004 3.57997)
IRL,1106.0,53.33306,-6.24891,Dublin,1059000.0,POINT (-6.24891 53.33306)
LBR,1107.0,6.31056,-10.80475,Monrovia,1041000.0,POINT (-10.80475 6.31056)
ITA,1108.0,40.84003,14.24501,Naples,2250000.0,POINT (14.24501 40.84003)
ITA,1109.0,45.46998,9.20501,Milan,2945000.0,POINT (9.20501 45.46998)
MYS,1110.0,3.16667,101.69998,Kuala Lumpur,1448000.0,POINT (101.69998 3.16667)
CHN,1111.0,36.05603,103.792,Lanzhou,2561000.0,POINT (103.792 36.05603)
CHN,1112.0,22.81999,108.32004,Nanning,2167000.0,POINT (108.32004 22.81999)
CHN,1113.0,26.58004,106.72004,Guiyang,3662000.0,POINT (106.72004 26.58004)
CHN,1114.0,29.56498,106.59498,Chongqing,6461000.0,POINT (106.59498 29.56498)
CHN,1115.0,26.08,119.30005,Fuzhou,2606000.0,POINT (119.30005 26.08)
CHN,1116.0,23.14498,113.32501,Guangzhou,8829000.0,POINT (113.32501 23.14498)
CHN,1117.0,23.04889,113.74472,Dongguan,4528000.0,POINT (113.74472 23.04889)
IDN,1118.0,-6.95003,107.57001,Bandung,2394000.0,POINT (107.57001 -6.95003)
IDN,1119.0,-7.24924,112.75083,Surabaya,2845000.0,POINT (112.75083 -7.24924)
ECU,1120.0,-2.22003,-79.92004,Guayaquil,2514000.0,POINT (-79.92004 -2.22003)
COL,1121.0,6.275,-75.57501,Medellin,3297000.0,POINT (-75.57501 6.275)
COL,1122.0,3.39996,-76.49997,Cali,2254000.0,POINT (-76.49997 3.39996)
CUB,1123.0,23.13196,-82.36418,Havana,2174000.0,POINT (-82.36418 23.13196)
EGY,1124.0,31.20002,29.95,Alexandria,4165000.0,POINT (29.95 31.20002)
DEU,1125.0,50.09998,8.67502,Frankfurt,2895000.0,POINT (8.67502 50.09998)
DEU,1126.0,53.55002,10.0,Hamburg,1757000.0,POINT (10 53.55002)
DEU,1127.0,48.12994,11.57499,Munich,1275000.0,POINT (11.57499 48.12994)
CZE,1128.0,50.08334,14.46598,Prague,1162000.0,POINT (14.46598 50.08334)
KWT,1129.0,29.36972,47.9783,Kuwait,2063000.0,POINT (47.9783 29.36972)
CHN,1130.0,34.27503,108.895,Xian,4009000.0,POINT (108.895 34.27503)
CHN,1131.0,37.87501,112.54506,Taiyuan,2913000.0,POINT (112.54506 37.87501)
CHN,1132.0,30.58003,114.27002,Wuhan,7243000.0,POINT (114.27002 30.58003)
CHN,1133.0,28.19997,112.96999,Changsha,2604000.0,POINT (112.96999 28.19997)
CHN,1134.0,25.06998,102.67998,Kunming,2931000.0,POINT (102.67998 25.06998)
CHN,1135.0,34.755,113.66509,Zhengzhou,2636000.0,POINT (113.66509 34.755)
CHN,1136.0,41.80498,123.44997,Shenyeng,4787000.0,POINT (123.44997 41.80498)
CHN,1137.0,36.67498,116.99502,Jinan,2798000.0,POINT (116.99502 36.67498)
CHN,1138.0,39.13003,117.20002,Tianjin,7180000.0,POINT (117.20002 39.13003)
CHN,1139.0,28.67999,115.88,Nanchang,2350000.0,POINT (115.88 28.67999)
CHN,1140.0,32.05002,118.77997,Nanjing,3679000.0,POINT (118.77997 32.05002)
CHN,1141.0,30.24997,120.17002,Hangzhou,3007000.0,POINT (120.17002 30.24997)
JPN,1142.0,34.38784,132.44291,Hiroshima,2045000.0,POINT (132.44291 34.38784)
CHN,1143.0,43.86501,125.33999,Changchun,3183000.0,POINT (125.33999 43.86501)
CHN,1144.0,40.65221,109.82202,Baotou,2036000.0,POINT (109.82202 40.65221)
CHN,1145.0,45.74998,126.64998,Harbin,3621000.0,POINT (126.64998 45.74998)
JPN,1146.0,43.07498,141.34004,Sapporo,2544000.0,POINT (141.34004 43.07498)
DOM,1147.0,18.47007,-69.90009,Santo Domingo,2154000.0,POINT (-69.90009 18.47007)
GHA,1148.0,5.55003,-0.21672,Accra,2121000.0,POINT (-0.21672 5.55003)
IND,1149.0,28.66999,77.23,Delhi,15926000.0,POINT (77.23 28.66999)
IND,1150.0,17.39998,78.47995,Hyderabad,6376000.0,POINT (78.47995 17.39998)
IND,1151.0,18.53002,73.85,Pune,4672000.0,POINT (73.85 18.53002)
IND,1152.0,21.16996,79.08999,Nagpur,2454000.0,POINT (79.08999 21.16996)
LBY,1153.0,32.8925,13.18001,Tripoli,2189000.0,POINT (13.18001 32.8925)
ISR,1154.0,32.07999,34.77001,Tel Aviv-Yafo,3112000.0,POINT (34.77001 32.07999)
FIN,1155.0,60.17556,24.93413,Helsinki,1115000.0,POINT (24.93413 60.17556)
IRN,1156.0,36.27002,59.57,Mashhad,2469000.0,POINT (59.57 36.27002)
IND,1157.0,26.92113,75.80999,Jaipur,2917000.0,POINT (75.80999 26.92113)
IND,1158.0,26.46,80.32,Kanpur,3162000.0,POINT (80.32 26.46)
IND,1159.0,25.62496,85.13004,Patna,2158000.0,POINT (85.13004 25.62496)
IND,1160.0,13.08999,80.28,Chennai,7163000.0,POINT (80.28 13.08999)
IND,1161.0,23.03005,72.58,Ahmedabad,5375000.0,POINT (72.58 23.03005)
IND,1162.0,21.19998,72.84004,Surat,3842000.0,POINT (72.84004 21.19998)
DNK,1163.0,55.67856,12.56349,København,1085000.0,POINT (12.56349 55.67856)
CIV,1164.0,5.32,-4.04005,Abidjan,3802000.0,POINT (-4.04005 5.32)
BRA,1165.0,-1.45,-48.48002,Belem,2167000.0,POINT (-48.48002 -1.45)
BRA,1166.0,-15.78334,-47.91605,Brasilia,3716996.0,POINT (-47.91605 -15.78334)
BRA,1167.0,-30.05001,-51.20001,Porto Alegre,3917000.0,POINT (-51.20001 -30.05001)
BRA,1168.0,-25.42001,-49.32,Curitiba,3084000.0,POINT (-49.32 -25.42001)
BRA,1169.0,-3.75002,-38.57998,Fortaleza,3602319.0,POINT (-38.57998 -3.75002)
BRA,1170.0,-12.96997,-38.47999,Salvador,3484000.0,POINT (-38.47999 -12.96997)
CAN,1171.0,53.55002,-113.49998,Edmonton,1058000.0,POINT (-113.49998 53.55002)
CAN,1172.0,45.5,-73.5833,Montréal,3678000.0,POINT (-73.5833 45.5)
BRA,1173.0,-16.72003,-49.30002,Goiania,2022000.0,POINT (-49.30002 -16.72003)
BRA,1174.0,-8.07565,-34.91561,Recife,3651000.0,POINT (-34.91561 -8.07565)
BEL,1175.0,50.83332,4.33332,Brussels,1743000.0,POINT (4.33332 50.83332)
BGD,1176.0,23.72306,90.40858,Dhaka,12797394.0,POINT (90.40858 23.72306)
AGO,1177.0,-8.83829,13.23443,Luanda,5172900.0,POINT (13.23443 -8.83829)
DZA,1178.0,36.76306,3.05055,Algiers,3354000.0,POINT (3.05055 36.76306)
BGD,1179.0,22.32999,91.79997,Chittagong,4529000.0,POINT (91.79997 22.32999)
AUS,1180.0,-31.95501,115.84,Perth,1532000.0,POINT (115.84 -31.95501)
MMR,1181.0,16.78335,96.16668,Rangoon,4088000.0,POINT (96.16668 16.78335)
USA,1182.0,37.74001,-122.45998,San Francisco,3450000.0,POINT (-122.45998 37.74001)
USA,1183.0,39.73919,-104.98402,Denver,2313000.0,POINT (-104.98402 39.73919)
USA,1184.0,29.81997,-95.33998,Houston,4459000.0,POINT (-95.33998 29.81997)
USA,1185.0,25.78761,-80.22411,Miami,5585000.0,POINT (-80.22411 25.78761)
USA,1186.0,33.83001,-84.39995,Atlanta,4506000.0,POINT (-84.39995 33.83001)
USA,1187.0,41.82999,-87.75005,Chicago,8990000.0,POINT (-87.75005 41.82999)
VEN,1188.0,10.501,-66.91704,Caracas,2985000.0,POINT (-66.91704 10.501)
UKR,1189.0,50.43337,30.51663,Kiev,2709000.0,POINT (30.51663 50.43337)
ARE,1190.0,25.23,55.27997,Dubai,1379000.0,POINT (55.27997 25.23)
UZB,1191.0,41.3117,69.29493,Tashkent,2184000.0,POINT (69.29493 41.3117)
ESP,1192.0,40.40003,-3.68335,Madrid,5567000.0,POINT (-3.68335 40.40003)
CHE,1193.0,46.21001,6.14003,Geneva,1240000.0,POINT (6.14003 46.21001)
SWE,1194.0,59.35076,18.09733,Stockholm,1264000.0,POINT (18.09733 59.35076)
THA,1195.0,13.75,100.51664,Bangkok,6704000.0,POINT (100.51664 13.75)
PER,1196.0,-12.04801,-77.05006,Lima,8012000.0,POINT (-77.05006 -12.04801)
SEN,1197.0,14.71583,-17.47313,Dakar,2604000.0,POINT (-17.47313 14.71583)
ZAF,1198.0,-26.17004,28.03001,Johannesburg,3435000.0,POINT (28.03001 -26.17004)
NLD,1199.0,52.34997,4.91664,Amsterdam,1031000.0,POINT (4.91664 52.34997)
MAR,1200.0,33.59998,-7.61637,Casablanca,3181000.0,POINT (-7.61637 33.59998)
KOR,1201.0,37.56635,126.99973,Seoul,9796000.0,POINT (126.99973 37.56635)
PHL,1202.0,14.60416,120.98222,Manila,11100000.0,POINT (120.98222 14.60416)
MEX,1203.0,25.67,-100.32998,Monterrey,3712000.0,POINT (-100.32998 25.67)
NZL,1204.0,-36.85001,174.76498,Auckland,1245000.0,POINT (174.76498 -36.85001)
DEU,1205.0,52.52182,13.40155,Berlin,3406000.0,POINT (13.40155 52.52182)
CHN,1206.0,43.80501,87.57501,Urumqi,2151000.0,POINT (87.57501 43.80501)
CHN,1207.0,30.67,104.07002,Chengdu,4123000.0,POINT (104.07002 30.67)
JPN,1208.0,34.75004,135.46014,Osaka,11294000.0,POINT (135.46014 34.75004)
COD,1209.0,-4.32972,15.31497,Kinshasa,7843000.0,POINT (15.31497 -4.32972)
IND,1210.0,28.60002,77.19998,New Delhi,317797.0,POINT (77.19998 28.60002)
IND,1211.0,12.97,77.56001,Bangalore,6787000.0,POINT (77.56001 12.97)
GRC,1212.0,37.98333,23.73332,Athens,3242000.0,POINT (23.73332 37.98333)
IRQ,1213.0,33.33865,44.39387,Baghdad,5054000.0,POINT (44.39387 33.33865)
ETH,1214.0,9.03331,38.7,Addis Ababa,3100000.0,POINT (38.7 9.03331)
IRN,1215.0,35.67194,51.42434,Tehran,7873000.0,POINT (51.42434 35.67194)
CAN,1216.0,49.27342,-123.12164,Vancouver,2313328.0,POINT (-123.12164 49.27342)
CAN,1217.0,43.69998,-79.42002,Toronto,5213000.0,POINT (-79.42002 43.69998)
ARG,1218.0,-34.6025,-58.39753,Buenos Aires,12795000.0,POINT (-58.39753 -34.6025)
AFG,1219.0,34.51669,69.18326,Kabul,3277000.0,POINT (69.18326 34.51669)
AUT,1220.0,48.20002,16.36664,Vienna,2400000.0,POINT (16.36664 48.20002)
AUS,1221.0,-37.82003,144.97502,Melbourne,4170000.0,POINT (144.97502 -37.82003)
TWN,1222.0,25.03583,121.56833,Taipei,6900273.0,POINT (121.56833 25.03583)
USA,1223.0,33.98998,-118.17998,Los Angeles,12500000.0,POINT (-118.17998 33.98998)
USA,1224.0,38.89955,-77.00942,Washington D.C.,4338000.0,POINT (-77.00942 38.89955)
USA,1225.0,40.74998,-73.98002,New York,19040000.0,POINT (-73.98002 40.74998)
GBR,1226.0,51.49999,-0.11672,London,8567000.0,POINT (-0.11672 51.49999)
TUR,1227.0,41.105,29.01,Istanbul,10061000.0,POINT (29.01 41.105)
SAU,1228.0,24.64083,46.77274,Riyadh,4465000.0,POINT (46.77274 24.64083)
ZAF,1229.0,-33.92001,18.43499,Cape Town,3215000.0,POINT (18.43499 -33.92001)
RUS,1230.0,55.75216,37.61552,Moscow,10452000.0,POINT (37.61552 55.75216)
MEX,1231.0,19.44244,-99.13099,Mexico City,19028000.0,POINT (-99.13099 19.44244)
NGA,1232.0,6.44326,3.39153,Lagos,9466000.0,POINT (3.39153 6.44326)
ITA,1233.0,41.89596,12.48326,Rome,3339000.0,POINT (12.48326 41.89596)
CHN,1234.0,39.92889,116.38829,Beijing,11106000.0,POINT (116.38829 39.92889)
KEN,1235.0,-1.28335,36.81666,Nairobi,3010000.0,POINT (36.81666 -1.28335)
IDN,1236.0,-6.17442,106.82944,Jakarta,9125000.0,POINT (106.82944 -6.17442)
COL,1237.0,4.59642,-74.08334,Bogota,7772000.0,POINT (-74.08334 4.59642)
EGY,1238.0,30.04996,31.24997,Cairo,11893000.0,POINT (31.24997 30.04996)
CHN,1239.0,31.21645,121.4365,Shanghai,14987000.0,POINT (121.4365 31.21645)
JPN,1240.0,35.68502,139.75141,Tokyo,35676000.0,POINT (139.75141 35.68502)
IND,1241.0,19.01699,72.85699,Mumbai,18978000.0,POINT (72.85699 19.01699)
FRA,1242.0,48.86669,2.33334,Paris,9904000.0,POINT (2.33334 48.86669)
CHL,1243.0,-33.45001,-70.66704,Santiago,5720000.0,POINT (-70.66704 -33.45001)
IND,1244.0,22.49497,88.32468,Kolkata,14787000.0,POINT (88.32468 22.49497)
BRA,1245.0,-22.92502,-43.22502,Rio de Janeiro,11748000.0,POINT (-43.22502 -22.92502)
BRA,1246.0,-23.55868,-46.62502,Sao Paulo,18845000.0,POINT (-46.62502 -23.55868)
AUS,1247.0,-33.92001,151.18518,Sydney,4630000.0,POINT (151.18518 -33.92001)
SGP,1248.0,1.29303,103.85582,Singapore,5183700.0,POINT (103.85582 1.29303)
CHN,1249.0,22.30498,114.18501,Hong Kong,7206000.0,POINT (114.18501 22.30498)
